location,query,imp_lat,imp_lng
029XX Vespasian Blvd,"2900 Vespasian Blvd, New Orleans, LA",29.9320076,-90.029727
033XX Gen De Gaulle Dr,"3300 Gen De Gaulle Dr, New Orleans, LA",29.926776,-90.024648
076XX Fieldston Rd,"7600 Fieldston Rd, New Orleans, LA",30.0346621,-90.0071219
005XX Bourbon St,"500 Bourbon St, New Orleans, LA",29.9570708,-90.0669318
020XX La Salle St,"2000 La Salle St, New Orleans, LA",29.9416268,-90.0845189
096XX Hayne Blvd,"9600 Hayne Blvd, New Orleans, LA",30.0467398,-89.9885521
019XX Mlk Blvd,"1900 Mlk Blvd, New Orleans, LA",,
001XX Bourbon St,"100 Bourbon St, New Orleans, LA",29.9643234,-90.0605337
003XX St Joseph St,"300 St Joseph St, New Orleans, LA",29.9430142,-90.0664606
059XX Bullard Ave,"5900 Bullard Ave, New Orleans, LA",30.042725,-89.958531
041XX Vendome Pl,"4100 Vendome Pl, New Orleans, LA",29.9529612,-90.1083645
018XX Chippewa St,"1800 Chippewa St, New Orleans, LA",29.9210917,-90.0828678
043XX D'Hemecourt St,"4300 D'Hemecourt St, New Orleans, LA",29.971991,-90.107222
007XX Canal St,"700 Canal St, New Orleans, LA",29.9530497,-90.0694014
050XX Press Dr,"5000 Press Dr, New Orleans, LA",30.010394,-90.0425232
008XX Pacific Ave,"800 Pacific Ave, New Orleans, LA",29.9474202,-90.0460537
049XX Schindler Dr,"4900 Schindler Dr, New Orleans, LA",30.0254532,-89.9638353
003XX N Miro St,"300 N Miro St, New Orleans, LA",29.964445,-90.081408
004XX Decatur St,"400 Decatur St, New Orleans, LA",29.954429,-90.064788
019XX Tchoupitoulas St,"1900 Tchoupitoulas St, New Orleans, LA",29.9344779,-90.0663672
009XX Dauphine St,"900 Dauphine St, New Orleans, LA",29.96092,-90.064894
023XX Saint Andrew St,"2300 Saint Andrew St, New Orleans, LA",29.9410377,-90.0840956
013XX Canal St,"1300 Canal St, New Orleans, LA",29.9562708,-90.0744216
006XX Canal St,"600 Canal St, New Orleans, LA",29.9524562,-90.0685016
004XX N Claiborne Ave,"400 N Claiborne Ave, New Orleans, LA",29.961529,-90.075225
003XX Bourbon St,"300 Bourbon St, New Orleans, LA",29.9556978,-90.0678169
014XX N Rampart St,"1400 N Rampart St, New Orleans, LA",29.96598,-90.063324
038XX Annunciation St,"3800 Annunciation St, New Orleans, LA",29.9184775,-90.0935092
009XX Elysian Fields Ave,"900 Elysian Fields Ave, New Orleans, LA",29.966684,-90.056923
007XX Conti St,"700 Conti St, New Orleans, LA",29.955666,-90.066982
003XX Royal St,"300 Royal St, New Orleans, LA",29.9549493,-90.0673909
009XX N White St,"900 N White St, New Orleans, LA",29.973137,-90.0828
007XX St Louis St,"700 St Louis St, New Orleans, LA",29.956418,-90.066298
018XX 1st St,"1800 1st St, New Orleans, LA",,
022XX N Broad St,"2200 N Broad St, New Orleans, LA",29.98765,-90.067616
025XX A P Tureaud Ave,"2500 A P Tureaud Ave, New Orleans, LA",29.982272,-90.067632
007XX Bourbon St,"700 Bourbon St, New Orleans, LA",29.9586069,-90.0654573
014XX Annette St,"1400 Annette St, New Orleans, LA",29.971344,-90.063045
059XX Stratford Pl,"5900 Stratford Pl, New Orleans, LA",29.9128038,-89.9927447
036XX Mac Arthur Blvd,"3600 Mac Arthur Blvd, New Orleans, LA",,
048XX Downman Rd,"4800 Downman Rd, New Orleans, LA",30.0178831,-90.0219562
014XX Canal St,"1400 Canal St, New Orleans, LA",29.956809,-90.074787
022XX Valmont St,"2200 Valmont St, New Orleans, LA",29.9343955,-90.1106651
025XX Laurel St,"2500 Laurel St, New Orleans, LA",29.9257653,-90.0788029
027XX Napoleon Ave,"2700 Napoleon Ave, New Orleans, LA",29.9375381,-90.1044363
XX Yosemite Dr,"XX Yosemite Dr, New Orleans, LA",29.9149787,-90.0103402
078XX Saint Charles Ave,"7800 Saint Charles Ave, New Orleans, LA",29.94109,-90.131957
048XX Annunciation St,"4800 Annunciation St, New Orleans, LA",29.9174595,-90.1059387
008XX Carondelet St,"800 Carondelet St, New Orleans, LA",29.946058,-90.072854
079XX Birch St,"7900 Birch St, New Orleans, LA",29.948824,-90.125211
005XX Barracks St,"500 Barracks St, New Orleans, LA",29.962092,-90.0595413
005XX Elysian Fields Ave,"500 Elysian Fields Ave, New Orleans, LA",29.962747,-90.05661
007XX Dumaine St,"700 Dumaine St, New Orleans, LA",29.95965,-90.06344
034XX Louisa St,"3400 Louisa St, New Orleans, LA",29.992174,-90.0351682
076XX Hurst St,"7600 Hurst St, New Orleans, LA",29.936996,-90.133419
018XX Painters St,"1800 Painters St, New Orleans, LA",29.97625,-90.049412
049XX Toulon St,"4900 Toulon St, New Orleans, LA",30.0343327,-89.9337352
018XX Cambronne St,"1800 Cambronne St, New Orleans, LA",29.9538254,-90.1278494
016XX Gentilly Blvd,"1600 Gentilly Blvd, New Orleans, LA",29.980927,-90.077306
027XX 6th St,"2700 6th St, New Orleans, LA",29.9393834,-90.094322
058XX Fleur De Lis Dr,"5800 Fleur De Lis Dr, New Orleans, LA",29.9968673,-90.1197188
053XX Tchoupitoulas St,"5300 Tchoupitoulas St, New Orleans, LA",29.9160971,-90.113818
010XX Decatur St,"1000 Decatur St, New Orleans, LA",29.9591675,-90.060505
031XX Ursulines Ave,"3100 Ursulines Ave, New Orleans, LA",29.9768401,-90.0849668
015XX Oretha Castle Haley Blvd,"1500 Oretha Castle Haley Blvd, New Orleans, LA",29.940941,-90.07915
040XX Clermont Dr,"4000 Clermont Dr, New Orleans, LA",29.9986643,-90.0565856
017XX Tchoupitoulas St,"1700 Tchoupitoulas St, New Orleans, LA",29.928821,-90.066678
061XX Clara St,"6100 Clara St, New Orleans, LA",29.939335,-90.11573
013XX Poydras St,"1300 Poydras St, New Orleans, LA",29.9509475,-90.0767359
061XX Painters St,"6100 Painters St, New Orleans, LA",30.0214888,-90.0531875
010XX Canal St,"1000 Canal St, New Orleans, LA",29.9549055,-90.0721484
027XX Tulane Ave,"2700 Tulane Ave, New Orleans, LA",29.9619559,-90.0917713
003XX Canal St,"300 Canal St, New Orleans, LA",29.950837,-90.065934
009XX N Tonti St,"900 N Tonti St, New Orleans, LA",29.969874,-90.078004
007XX Saint Peter St,"700 Saint Peter St, New Orleans, LA",29.957993,-90.064913
019XX General Taylor St,"1900 General Taylor St, New Orleans, LA",29.929999,-90.097265
021XX Thalia St,"2100 Thalia St, New Orleans, LA",29.942738,-90.080375
036XX Macarthur Blvd,"3600 Macarthur Blvd, New Orleans, LA",29.925056,-90.020541
004XX Canal St,"400 Canal St, New Orleans, LA",29.9510163,-90.0663751
021XX S Claiborne Ave,"2100 S Claiborne Ave, New Orleans, LA",29.945455,-90.089028
070XX Bundy Rd,"7000 Bundy Rd, New Orleans, LA",30.0349929,-89.9866145
025XX Banks St,"2500 Banks St, New Orleans, LA",29.961243,-90.087413
057XX Pembrook Dr,"5700 Pembrook Dr, New Orleans, LA",29.9256733,-89.9952712
004XX Bourbon St,"400 Bourbon St, New Orleans, LA",29.9563459,-90.0675543
050XX Canal Blvd,"5000 Canal Blvd, New Orleans, LA",29.982408,-90.110889
092XX Airline Hwy,"9200 Airline Hwy, New Orleans, LA",,
025XX Clover St,"2500 Clover St, New Orleans, LA",29.9965514,-90.0520087
024XX Tulane Ave,"2400 Tulane Ave, New Orleans, LA",29.960035,-90.087059
036XX S Carrollton Ave,"3600 S Carrollton Ave, New Orleans, LA",29.9650905,-90.1118389
036XX Clermont Dr,"3600 Clermont Dr, New Orleans, LA",29.9945205,-90.0539041
035XX Canal St,"3500 Canal St, New Orleans, LA",29.970797,-90.095347
008XX Harrison Ave,"800 Harrison Ave, New Orleans, LA",30.0041491,-90.1054904
029XX Pauger St,"2900 Pauger St, New Orleans, LA",29.9795944,-90.0615429
001XX S Lopez St,"100 S Lopez St, New Orleans, LA",29.968494,-90.09203
077XX S Claiborne Ave,"7700 S Claiborne Ave, New Orleans, LA",29.9531421,-90.1175979
025XX Port St,"2500 Port St, New Orleans, LA",29.9833376,-90.0449792
038XX Orleans Ave,"3800 Orleans Ave, New Orleans, LA",29.977635,-90.093379
004XX N Carrollton Ave,"400 N Carrollton Ave, New Orleans, LA",29.9763518,-90.0965333
007XX Tchoupitoulas St,"700 Tchoupitoulas St, New Orleans, LA",29.9460615,-90.0670164
016XX General Ogden St,"1600 General Ogden St, New Orleans, LA",29.955685,-90.133352
015XX Poydras St,"1500 Poydras St, New Orleans, LA",29.9513865,-90.0789454
032XX General Meyer Ave,"3200 General Meyer Ave, New Orleans, LA",29.940524,-90.022366
051XX Bundy Rd,"5100 Bundy Rd, New Orleans, LA",30.024988,-89.980368
002XX Bourbon St,"200 Bourbon St, New Orleans, LA",29.9547495,-90.0690148
030XX Annunciation St,"3000 Annunciation St, New Orleans, LA",29.922336,-90.082804
005XX Wagner St,"500 Wagner St, New Orleans, LA",29.950337,-90.039325
047XX Tchoupitoulas St,"4700 Tchoupitoulas St, New Orleans, LA",29.9166922,-90.1046507
054XX Fontainebleau Dr,"5400 Fontainebleau Dr, New Orleans, LA",29.950686,-90.107914
028XX S Claiborne Ave,"2800 S Claiborne Ave, New Orleans, LA",29.9420275,-90.0944643
029XX Dryades St,"2900 Dryades St, New Orleans, LA",29.932562,-90.089262
036XX Texas Dr,"3600 Texas Dr, New Orleans, LA",29.9191814,-90.020337
040XX General De Gaulle Dr,"4000 General De Gaulle Dr, New Orleans, LA",29.9226735,-90.0151512
015XX N Claiborne Ave,"1500 N Claiborne Ave, New Orleans, LA",29.9709625,-90.0667792
001XX 10th St,"100 10th St, New Orleans, LA",30.000374,-90.116317
005XX Canal St,"500 Canal St, New Orleans, LA",29.9517932,-90.068085
022XX Saint Anthony St,"2200 Saint Anthony St, New Orleans, LA",29.979529,-90.062533
020XX Poydras St,"2000 Poydras St, New Orleans, LA",29.9547763,-90.0852855
051XX Kendall Dr,"5100 Kendall Dr, New Orleans, LA",30.0119092,-90.0401128
025XX Martin Luther King Jr Blvd,"2500 Martin Luther King Jr Blvd, New Orleans, LA",29.9438601,-90.0846042
027XX Josephine St,"2700 Josephine St, New Orleans, LA",29.943498,-90.087282
035XX Mandeville St,"3500 Mandeville St, New Orleans, LA",29.994163,-90.056518
050XX Saint Ferdinand Dr,"5000 Saint Ferdinand Dr, New Orleans, LA",30.010163,-90.04233
033XX Garden Oaks Dr,"3300 Garden Oaks Dr, New Orleans, LA",29.922381,-90.022459
017XX Martin Luther King Jr Blvd,"1700 Martin Luther King Jr Blvd, New Orleans, LA",29.939763,-90.076935
037XX S Carrollton Ave,"3700 S Carrollton Ave, New Orleans, LA",29.9659185,-90.1109547
009XX Canal St,"900 Canal St, New Orleans, LA",29.954315,-90.0712797
040XX Tulane Ave,"4000 Tulane Ave, New Orleans, LA",29.968056,-90.104705
034XX S Carrollton Ave,"3400 S Carrollton Ave, New Orleans, LA",29.9637358,-90.1130596
012XX Octavia St,"1200 Octavia St, New Orleans, LA",29.92546,-90.114967
029XX Elysian Fields Ave,"2900 Elysian Fields Ave, New Orleans, LA",29.9880435,-90.058878
014XX Louisa St,"1400 Louisa St, New Orleans, LA",29.97037,-90.041614
002XX Maumus Ave,"200 Maumus Ave, New Orleans, LA",29.9143916,-89.9911951
032XX Jackson Ave,"3200 Jackson Ave, New Orleans, LA",29.947457,-90.092205
022XX Magnolia St,"2200 Magnolia St, New Orleans, LA",29.942683,-90.088056
059XX Read Blvd,"5900 Read Blvd, New Orleans, LA",30.0348385,-89.9747672
056XX Read Blvd,"5600 Read Blvd, New Orleans, LA",30.0299353,-89.9720407
079XX Saint Charles Ave,"7900 Saint Charles Ave, New Orleans, LA",29.94173,-90.132751
010XX Elysian Fields Ave,"1000 Elysian Fields Ave, New Orleans, LA",29.9676266,-90.0571106
010XX Poydras St,"1000 Poydras St, New Orleans, LA",29.9551934,-90.0858723
005XX Royal St,"500 Royal St, New Orleans, LA",29.9590229,-90.0258277
014XX Filmore Ave,"1400 Filmore Ave, New Orleans, LA",30.011119,-90.079341
019XX Amelia St,"1900 Amelia St, New Orleans, LA",29.9303128,-90.0959203
043XX Louisa Dr,"4300 Louisa Dr, New Orleans, LA",,
054XX Canal Blvd,"5400 Canal Blvd, New Orleans, LA",29.9876767,-90.1105417
020XX Foucher St,"2000 Foucher St, New Orleans, LA",29.9313604,-90.0953585
046XX Paris Ave,"4600 Paris Ave, New Orleans, LA",30.0055171,-90.0747456
014XX Music St,"1400 Music St, New Orleans, LA",29.9720094,-90.0513434
017XX S Carrollton Ave,"1700 S Carrollton Ave, New Orleans, LA",29.951091,-90.125982
009XX Lafayette St,"900 Lafayette St, New Orleans, LA",29.948817,-90.07361
017XX Bienville St,"1700 Bienville St, New Orleans, LA",29.960879,-90.076654
011XX Canal St,"1100 Canal St, New Orleans, LA",29.9555964,-90.0730846
005XX N Rampart St,"500 N Rampart St, New Orleans, LA",29.958907,-90.069649
017XX N Dorgenois St,"1700 N Dorgenois St, New Orleans, LA",29.9799167,-90.0723176
130XX Chef Menteur Hwy,"13000 Chef Menteur Hwy, New Orleans, LA",30.0288522,-89.9316411
012XX Shirley Dr,"1200 Shirley Dr, New Orleans, LA",29.9423411,-90.0312492
046XX Alcee Fortier Blvd,"4600 Alcee Fortier Blvd, New Orleans, LA",30.036839,-89.911878
017XX Prytania St,"1700 Prytania St, New Orleans, LA",29.936755,-90.075146
013XX Saint Charles Ave,"1300 Saint Charles Ave, New Orleans, LA",29.9403014,-90.0743088
057XX Tullis Dr,"5700 Tullis Dr, New Orleans, LA",29.9031694,-89.9942924
024XX Clouet St,"2400 Clouet St, New Orleans, LA",29.9811632,-90.0403872
030XX Pine St,"3000 Pine St, New Orleans, LA",29.9576734,-90.1122383
014XX Numa St,"1400 Numa St, New Orleans, LA",29.940543,-90.035722
080XX Breakwater Dr,"8000 Breakwater Dr, New Orleans, LA",30.0283587,-90.1179931
017XX Frenchmen St,"1700 Frenchmen St, New Orleans, LA",29.9746405,-90.0588086
075XX Briarwood Dr,"7500 Briarwood Dr, New Orleans, LA",30.0608236,-89.9515288
014XX 2nd St,"1400 2nd St, New Orleans, LA",,
066XX Lake Willow Dr,"6600 Lake Willow Dr, New Orleans, LA",30.0294344,-89.9995782
060XX Chef Menteur Hwy,"6000 Chef Menteur Hwy, New Orleans, LA",30.0100121,-90.018729
026XX Eton St,"2600 Eton St, New Orleans, LA",29.927114,-89.997387
024XX Sanctuary Dr,"2400 Sanctuary Dr, New Orleans, LA",29.9503914,-90.0368993
140XX Chef Menteur Hwy,"14000 Chef Menteur Hwy, New Orleans, LA",30.0075643,-90.0298731
049XX Savoie Ct,"4900 Savoie Ct, New Orleans, LA",30.0365206,-89.9286771
037XX Elysian Fields Ave,"3700 Elysian Fields Ave, New Orleans, LA",29.996023,-90.059231
063XX Marshall Foch St,"6300 Marshall Foch St, New Orleans, LA",30.004592,-90.103826
084XX S I-10 Service Rd,"8400 S I-10 Service Rd, New Orleans, LA",,
046XX Crowder Blvd,"4600 Crowder Blvd, New Orleans, LA",30.0192791,-89.9880715
073XX Malvern Dr,"7300 Malvern Dr, New Orleans, LA",,
030XX Holiday Dr,"3000 Holiday Dr, New Orleans, LA",29.92326,-90.013795
053XX Elysian Fields Ave,"5300 Elysian Fields Ave, New Orleans, LA",30.01265,-90.060571
047XX Downman Rd,"4700 Downman Rd, New Orleans, LA",30.017034,-90.02166
022XX Freret St,"2200 Freret St, New Orleans, LA",29.941197,-90.086875
045XX General Meyer Ave,"4500 General Meyer Ave, New Orleans, LA",29.934186,-90.008001
046XX Laine Ave,"4600 Laine Ave, New Orleans, LA",30.0178175,-89.9907256
058XX Tullis Dr,"5800 Tullis Dr, New Orleans, LA",29.9038829,-89.9931174
018XX Hollygrove St,"1800 Hollygrove St, New Orleans, LA",29.957767,-90.132661
034XX Saint Charles Ave,"3400 Saint Charles Ave, New Orleans, LA",29.928031,-90.091536
007XX Bienville St,"700 Bienville St, New Orleans, LA",29.954857,-90.067687
076XX Earhart Blvd,"7600 Earhart Blvd, New Orleans, LA",29.9592362,-90.1116806
024XX Willow St,"2400 Willow St, New Orleans, LA",29.9432116,-90.0906919
020XX Canal St,"2000 Canal St, New Orleans, LA",29.9597986,-90.0821311
008XX Calhoun St,"800 Calhoun St, New Orleans, LA",29.923759,-90.125495
024XX D'Abadie St,"2400 D'Abadie St, New Orleans, LA",,
009XX Fern St,"900 Fern St, New Orleans, LA",29.9440471,-90.1303935
018XX Andry St,"1800 Andry St, New Orleans, LA",29.96905,-90.016205
030XX Gentilly Blvd,"3000 Gentilly Blvd, New Orleans, LA",29.9963097,-90.0609399
063XX Music St,"6300 Music St, New Orleans, LA",30.023618,-90.055451
020XX Josephine St,"2000 Josephine St, New Orleans, LA",29.938351,-90.082802
008XX Dauphine St,"800 Dauphine St, New Orleans, LA",29.9601013,-90.0656237
028XX Perdido St,"2800 Perdido St, New Orleans, LA",29.960227,-90.094211
001XX Royal St,"100 Royal St, New Orleans, LA",29.9533644,-90.068801
069XX W Laverne St,"6900 W Laverne St, New Orleans, LA",30.0232337,-90.0214699
044XX Read Blvd,"4400 Read Blvd, New Orleans, LA",30.017275,-89.968068
032XX Louisiana Avenue Pkwy,"3200 Louisiana Avenue Pkwy, New Orleans, LA",29.9430147,-90.098728
019XX N Broad St,"1900 N Broad St, New Orleans, LA",29.983352,-90.071489
047XX Lafaye St,"4700 Lafaye St, New Orleans, LA",30.007201,-90.048714
055XX Rosemary Pl,"5500 Rosemary Pl, New Orleans, LA",29.990091,-90.113313
003XX Martin Luther King Jr Blvd,"300 Martin Luther King Jr Blvd, New Orleans, LA",29.9534583,-90.1006709
044XX Chef Menteur Hwy,"4400 Chef Menteur Hwy, New Orleans, LA",30.0044345,-90.039121
045XX Freret St,"4500 Freret St, New Orleans, LA",29.9350521,-90.1043494
040XX Ulloa St,"4000 Ulloa St, New Orleans, LA",29.968674,-90.104232
033XX Gentilly Blvd,"3300 Gentilly Blvd, New Orleans, LA",30.0005829,-90.0575275
046XX De Montluzin St,"4600 De Montluzin St, New Orleans, LA",,
009XX Bourbon St,"900 Bourbon St, New Orleans, LA",29.9602826,-90.0640281
XX Eugenie Ct,"XX Eugenie Ct, New Orleans, LA",29.899773,-90.0092233
047XX Magazine St,"4700 Magazine St, New Orleans, LA",29.920418,-90.105117
003XX Andrew Higgins Dr,"300 Andrew Higgins Dr, New Orleans, LA",,
043XX Saint Charles Ave,"4300 Saint Charles Ave, New Orleans, LA",29.9263049,-90.1010284
006XX Royal St,"600 Royal St, New Orleans, LA",29.9572704,-90.0652445
041XX S Carrollton Ave,"4100 S Carrollton Ave, New Orleans, LA",29.9690547,-90.1058966
021XX N Claiborne Ave,"2100 N Claiborne Ave, New Orleans, LA",29.9729958,-90.0583835
003XX Poydras St,"300 Poydras St, New Orleans, LA",29.9479631,-90.0661752
004XX N Rampart St,"400 N Rampart St, New Orleans, LA",29.9581522,-90.0702224
036XX Kimi O'Gray Ave,"3600 Kimi O'Gray Ave, New Orleans, LA",29.9926613,-90.030846
071XX W Renaissance Ct,"7100 W Renaissance Ct, New Orleans, LA",30.0532533,-89.9556191
046XX Sandalwood St,"4600 Sandalwood St, New Orleans, LA",30.0197388,-89.9701091
050XX Corinne St,"5000 Corinne St, New Orleans, LA",30.0274601,-89.9616736
006XX N Miro St,"600 N Miro St, New Orleans, LA",29.966625,-90.079468
008XX Canal St,"800 Canal St, New Orleans, LA",29.9536448,-90.0702658
006XX Saint Louis St,"600 Saint Louis St, New Orleans, LA",29.955826,-90.065426
Idaho St & Amazon St,"Idaho St & Amazon St, New Orleans, LA",,
013XX France St,"1300 France St, New Orleans, LA",29.9672824,-90.0330608
017XX 4th St,"1700 4th St, New Orleans, LA",,
020XX Socrates St,"2000 Socrates St, New Orleans, LA",29.940822,-90.036969
024XX Magazine St,"2400 Magazine St, New Orleans, LA",29.927903,-90.079274
063XX Chef Menteur Hwy,"6300 Chef Menteur Hwy, New Orleans, LA",30.010443,-90.014735
132XX Saint Helena Pl,"13200 Saint Helena Pl, New Orleans, LA",30.0445537,-89.9246819
036XX Rue Renee,"3600 Rue Renee, New Orleans, LA",29.915172,-89.993495
040XX Louisa St,"4000 Louisa St, New Orleans, LA",30.001212,-90.035481
051XX Gen De Gaulle Dr,"5100 Gen De Gaulle Dr, New Orleans, LA",29.9155242,-90.0068077
043XX Downman Rd,"4300 Downman Rd, New Orleans, LA",30.013369,-90.0213092
012XX N Rampart St,"1200 N Rampart St, New Orleans, LA",29.9644492,-90.0646049
047XX Old Gentilly Rd,"4700 Old Gentilly Rd, New Orleans, LA",30.0040909,-90.0334648
007XX Dauphine St,"700 Dauphine St, New Orleans, LA",29.9592327,-90.0664466
086XX Lake Forest Blvd,"8600 Lake Forest Blvd, New Orleans, LA",30.0270403,-89.9889628
010XX Poland Ave,"1000 Poland Ave, New Orleans, LA",29.9637958,-90.0319843
070XX Read Blvd,"7000 Read Blvd, New Orleans, LA",30.038252,-89.977239
011XX N Rampart St,"1100 N Rampart St, New Orleans, LA",29.963773,-90.065297
059XX Timoleon St,"5900 Timoleon St, New Orleans, LA",30.011701,-90.020911
006XX St Charles Ave,"600 St Charles Ave, New Orleans, LA",29.9477369,-90.0710435
008XX N Rampart St,"800 N Rampart St, New Orleans, LA",29.9613379,-90.0674069
004XX Elysian Fields Ave,"400 Elysian Fields Ave, New Orleans, LA",29.961499,-90.056817
020XX Napoleon Ave,"2000 Napoleon Ave, New Orleans, LA",29.930565,-90.102682
082XX Cohn St,"8200 Cohn St, New Orleans, LA",29.9531171,-90.1256837
004XX Royal St,"400 Royal St, New Orleans, LA",29.9557088,-90.0660442
040XX Chef Menteur Hwy,"4000 Chef Menteur Hwy, New Orleans, LA",30.002621,-90.0433256
037XX Saint Claude Ave,"3700 Saint Claude Ave, New Orleans, LA",29.966091,-90.037962
005XX Esplanade Ave,"500 Esplanade Ave, New Orleans, LA",29.962016,-90.05822
072XX Downman Rd,"7200 Downman Rd, New Orleans, LA",30.025332,-90.0243
016XX Independence St,"1600 Independence St, New Orleans, LA",29.971452,-90.036601
010XX Bartholomew St,"1000 Bartholomew St, New Orleans, LA",29.9645204,-90.0359138
034XX La Salle St,"3400 La Salle St, New Orleans, LA",29.935336,-90.095117
022XX Desire St,"2200 Desire St, New Orleans, LA",29.9782102,-90.0372282
010XX Lizardi St,"1000 Lizardi St, New Orleans, LA",29.9611879,-90.0210924
130XX Lemans St,"13000 Lemans St, New Orleans, LA",30.039853,-89.933918
009XX Saint Ann St,"900 Saint Ann St, New Orleans, LA",29.960081,-90.065942
010XX Bienville St,"1000 Bienville St, New Orleans, LA",29.9567006,-90.0703818
002XX N Olympia St,"200 N Olympia St, New Orleans, LA",29.9791451,-90.1048281
041XX N Miro St,"4100 N Miro St, New Orleans, LA",29.976617,-90.03094
048XX Chef Menteur Hwy,"4800 Chef Menteur Hwy, New Orleans, LA",30.0055865,-90.0361065
006XX S Peters St,"600 S Peters St, New Orleans, LA",29.9471343,-90.0657535
001XX S Rampart St,"100 S Rampart St, New Orleans, LA",29.9552732,-90.0728348
017XX Urquhart St,"1700 Urquhart St, New Orleans, LA",29.970145,-90.062706
026XX Orleans Ave,"2600 Orleans Ave, New Orleans, LA",29.9697241,-90.0816636
047XX Frenchmen St,"4700 Frenchmen St, New Orleans, LA",30.0061723,-90.0614102
009XX Esplanade Ave,"900 Esplanade Ave, New Orleans, LA",29.964591,-90.061915
006XX Bourbon St,"600 Bourbon St, New Orleans, LA",29.9643234,-90.0605337
031XX Louisiana Avenue Pkwy,"3100 Louisiana Avenue Pkwy, New Orleans, LA",29.9421159,-90.0980649
013XX N Rampart St,"1300 N Rampart St, New Orleans, LA",29.965329,-90.063914
071XX Parkside Ct,"7100 Parkside Ct, New Orleans, LA",30.0327422,-89.9942334
090XX Airline Hwy,"9000 Airline Hwy, New Orleans, LA",,
049XX Chef Menteur Hwy,"4900 Chef Menteur Hwy, New Orleans, LA",30.0056234,-90.0360123
077XX N Coronet Ct,"7700 N Coronet Ct, New Orleans, LA",30.0260673,-90.0010648
017XX N Rampart St,"1700 N Rampart St, New Orleans, LA",29.9666648,-90.0626836
069XX Morrison Rd,"6900 Morrison Rd, New Orleans, LA",30.0302603,-90.0116144
038XX Gentilly Blvd,"3800 Gentilly Blvd, New Orleans, LA",30.0027023,-90.0477708
008XX St Ann St,"800 St Ann St, New Orleans, LA",29.959488,-90.065019
044XX Fiesta St,"4400 Fiesta St, New Orleans, LA",29.928257,-90.00992
011XX Decatur St,"1100 Decatur St, New Orleans, LA",29.9598886,-90.059762
001XX Verret St,"100 Verret St, New Orleans, LA",29.954872,-90.05129
007XX Decatur St,"700 Decatur St, New Orleans, LA",29.9574641,-90.0629497
026XX Saint Claude Ave,"2600 Saint Claude Ave, New Orleans, LA",29.9686793,-90.0500421
048XX Bancroft Dr,"4800 Bancroft Dr, New Orleans, LA",30.0060111,-90.0837438
076XX Wave Dr,"7600 Wave Dr, New Orleans, LA",30.0563852,-89.9608542
009XX Decatur St,"900 Decatur St, New Orleans, LA",29.9583955,-90.061139
033XX Spain St,"3300 Spain St, New Orleans, LA",29.992202,-90.055218
101XX Lakewood St,"10100 Lakewood St, New Orleans, LA",30.024206,-89.968406
002XX Burgundy St,"200 Burgundy St, New Orleans, LA",29.955968,-90.070771
025XX Sage St,"2500 Sage St, New Orleans, LA",29.993564,-90.050899
047XX De Montluzin St,"4700 De Montluzin St, New Orleans, LA",,
011XX N Galvez St,"1100 N Galvez St, New Orleans, LA",29.970385,-90.074751
009XX Royal St,"900 Royal St, New Orleans, LA",29.9596157,-90.0631332
020XX Saint Bernard Ave,"2000 Saint Bernard Ave, New Orleans, LA",29.9765062,-90.0682745
023XX Amelia St,"2300 Amelia St, New Orleans, LA",29.934085,-90.096764
032XX Trafalgar St,"3200 Trafalgar St, New Orleans, LA",29.9874237,-90.0776264
010XX France St,"1000 France St, New Orleans, LA",29.96412,-90.033974
032XX Conti St,"3200 Conti St, New Orleans, LA",29.9711409,-90.0899646
013XX Esplanade Ave,"1300 Esplanade Ave, New Orleans, LA",29.9674512,-90.0661383
017XX Wagner St,"1700 Wagner St, New Orleans, LA",29.9365322,-90.0401553
032XX Garden Oaks Dr,"3200 Garden Oaks Dr, New Orleans, LA",29.9231166,-90.0218388
002XX S Scott St,"200 S Scott St, New Orleans, LA",29.9719929,-90.0992774
011XX Marais St,"1100 Marais St, New Orleans, LA",29.965563,-90.067908
046XX Gabriel Dr,"4600 Gabriel Dr, New Orleans, LA",30.0185911,-89.980689
011XX Milan St,"1100 Milan St, New Orleans, LA",29.9231,-90.099421
008XX S Peters St,"800 S Peters St, New Orleans, LA",29.9444354,-90.0656801
028XX S Roman St,"2800 S Roman St, New Orleans, LA",29.944046,-90.095897
029XX Saint Claude Ave,"2900 Saint Claude Ave, New Orleans, LA",29.968138,-90.046953
010XX Belleville St,"1000 Belleville St, New Orleans, LA",29.945374,-90.048287
005XX Frenchmen St,"500 Frenchmen St, New Orleans, LA",29.9626459,-90.0578707
052XX Wickfield Dr,"5200 Wickfield Dr, New Orleans, LA",30.0107893,-90.0679959
011XX Bourbon St,"1100 Bourbon St, New Orleans, LA",29.9618639,-90.0626507
008XX Olympia Cir,"800 Olympia Cir, New Orleans, LA",29.9483099,-90.0273442
066XX Franklin Ave,"6600 Franklin Ave, New Orleans, LA",30.0281717,-90.0540301
023XX 3rd St,"2300 3rd St, New Orleans, LA",29.9107129,-89.9721216
034XX Paris Ave,"3400 Paris Ave, New Orleans, LA",29.9920623,-90.0735571
035XX Saint Charles Ave,"3500 Saint Charles Ave, New Orleans, LA",29.9274013,-90.0928603
022XX Saint Claude Ave,"2200 Saint Claude Ave, New Orleans, LA",29.9684216,-90.056406
014XX Congress St,"1400 Congress St, New Orleans, LA",29.969547,-90.037955
007XX Royal St,"700 Royal St, New Orleans, LA",29.9580634,-90.0646432
026XX Felicity St,"2600 Felicity St, New Orleans, LA",29.944235,-90.086617
085XX Jeannette St,"8500 Jeannette St, New Orleans, LA",29.952239,-90.131054
019XX 4th St,"1900 4th St, New Orleans, LA",,
034XX Memorial Park Dr,"3400 Memorial Park Dr, New Orleans, LA",29.918531,-90.02034
005XX O'Bannon St,"500 O'Bannon St, New Orleans, LA",29.9490982,-90.0341682
003XX S Rocheblave St,"300 S Rocheblave St, New Orleans, LA",29.962003,-90.08644
027XX S Robertson St,"2700 S Robertson St, New Orleans, LA",29.9394788,-90.091695
010XX Clouet St,"1000 Clouet St, New Orleans, LA",29.9665383,-90.0447537
021XX Louisiana Ave,"2100 Louisiana Ave, New Orleans, LA",29.9328394,-90.0939417
088XX Jeannette St,"8800 Jeannette St, New Orleans, LA",29.9541749,-90.1335011
003XX S Scott St,"300 S Scott St, New Orleans, LA",29.971256,-90.10009
010XX Toulouse St,"1000 Toulouse St, New Orleans, LA",29.95903,-90.068314
021XX Broadway St,"2100 Broadway St, New Orleans, LA",29.949571,-90.11731
005XX Saint Maurice Ave,"500 Saint Maurice Ave, New Orleans, LA",29.9542885,-90.013085
019XX Burgundy St,"1900 Burgundy St, New Orleans, LA",29.966214,-90.0601082
033XX 2nd St,"3300 2nd St, New Orleans, LA",,
026XX Chippewa St,"2600 Chippewa St, New Orleans, LA",29.9235553,-90.0783009
001XX Pinewood Ct,"100 Pinewood Ct, New Orleans, LA",29.9323745,-90.0228456
007XX S Dupre St,"700 S Dupre St, New Orleans, LA",29.961774,-90.09429
036XX 4th St,"3600 4th St, New Orleans, LA",,
135XX Dwyer Blvd,"13500 Dwyer Blvd, New Orleans, LA",30.0394908,-89.9196076
007XX Saint Louis St,"700 Saint Louis St, New Orleans, LA",29.956418,-90.066298
044XX Washington Ave,"4400 Washington Ave, New Orleans, LA",29.955581,-90.1037233
032XX D'Hemecourt St,"3200 D'Hemecourt St, New Orleans, LA",29.964396,-90.096016
007XX Iberville St,"700 Iberville St, New Orleans, LA",29.954064,-90.068344
052XX Elysian Fields Ave,"5200 Elysian Fields Ave, New Orleans, LA",30.0114251,-90.0606293
003XX N Bernadotte St,"300 N Bernadotte St, New Orleans, LA",29.981215,-90.1059974
016XX Mandeville St,"1600 Mandeville St, New Orleans, LA",29.973874,-90.05489
002XX S Broad St,"200 S Broad St, New Orleans, LA",29.9643115,-90.0881523
007XX Place Jean Paul Deux,"700 Place Jean Paul Deux, New Orleans, LA",,
115XX Chef Menteur Hwy,"11500 Chef Menteur Hwy, New Orleans, LA",30.0229112,-89.9515427
021XX N Villere St,"2100 N Villere St, New Orleans, LA",29.971439,-90.058217
056XX Freret St,"5600 Freret St, New Orleans, LA",29.935577,-90.1134
043XX Almonaster Ave,"4300 Almonaster Ave, New Orleans, LA",29.9865677,-90.0442962
015XX Freret St,"1500 Freret St, New Orleans, LA",29.943825,-90.084386
006XX Iberville St,"600 Iberville St, New Orleans, LA",29.953466,-90.067465
063XX West End Blvd,"6300 West End Blvd, New Orleans, LA",30.0228939,-90.1128429
055XX Crowder Blvd,"5500 Crowder Blvd, New Orleans, LA",30.02716,-89.992189
074XX Finchley Rd,"7400 Finchley Rd, New Orleans, LA",30.0466672,-89.9694633
032XX Saint Claude Ave,"3200 Saint Claude Ave, New Orleans, LA",29.9670144,-90.0423421
032XX 2nd St,"3200 2nd St, New Orleans, LA",,
016XX Simon Bolivar Ave,"1600 Simon Bolivar Ave, New Orleans, LA",29.9416905,-90.082195
084XX S Claiborne Ave,"8400 S Claiborne Ave, New Orleans, LA",29.957977,-90.123419
129XX Chef Menteur Hwy,"12900 Chef Menteur Hwy, New Orleans, LA",30.0287198,-89.9340724
006XX Canal,"600 Canal, New Orleans, LA",29.9524562,-90.0685016
005XX Marigny St,"500 Marigny St, New Orleans, LA",29.962821,-90.055176
039XX Buchanan St,"3900 Buchanan St, New Orleans, LA",29.996742,-90.080754
013XX Gravier St,"1300 Gravier St, New Orleans, LA",29.953737,-90.0760887
092XX Chef Menteur Hwy,"9200 Chef Menteur Hwy, New Orleans, LA",30.0154314,-89.9786073
029XX Bienville St,"2900 Bienville St, New Orleans, LA",29.968813,-90.088298
046XX Coronado Dr,"4600 Coronado Dr, New Orleans, LA",,
056XX France Rd,"5600 France Rd, New Orleans, LA",30.0296044,-90.0371952
018XX S Robertson St,"1800 S Robertson St, New Orleans, LA",29.943458,-90.085781
037XX Gentilly Blvd,"3700 Gentilly Blvd, New Orleans, LA",30.002788,-90.049986
037XX Desire Pkwy,"3700 Desire Pkwy, New Orleans, LA",29.9972212,-90.0328674
004XX N Peters Saint,"400 N Peters Saint, New Orleans, LA",,
045XX Flake Ave,"4500 Flake Ave, New Orleans, LA",30.016143,-89.989148
013XX S Telemachus St,"1300 S Telemachus St, New Orleans, LA",29.958608,-90.107042
028XX Banks St,"2800 Banks St, New Orleans, LA",29.9638168,-90.0913871
047XX Marigny St,"4700 Marigny St, New Orleans, LA",30.0066023,-90.058396
008XX Saint Mary St,"800 Saint Mary St, New Orleans, LA",29.929374,-90.0717484
040XX Behrman Pl,"4000 Behrman Pl, New Orleans, LA",29.918191,-90.0172815
022XX N Claiborne Ave,"2200 N Claiborne Ave, New Orleans, LA",29.973038,-90.05691
042XX Downman Rd,"4200 Downman Rd, New Orleans, LA",30.013167,-90.021291
046XX Eastern St,"4600 Eastern St, New Orleans, LA",30.005557,-90.046754
023XX Prentiss Ave,"2300 Prentiss Ave, New Orleans, LA",30.016725,-90.058063
019XX N Dorgenois St,"1900 N Dorgenois St, New Orleans, LA",29.982026,-90.068591
109XX Harrow Rd,"10900 Harrow Rd, New Orleans, LA",,
096XX Chef Menteur Hwy,"9600 Chef Menteur Hwy, New Orleans, LA",30.0075643,-90.0298731
130XX Dwyer Blvd,"13000 Dwyer Blvd, New Orleans, LA",30.0394908,-89.9196076
069XX Orleans Ave,"6900 Orleans Ave, New Orleans, LA",30.015245,-90.09919
055XX Wingate Dr,"5500 Wingate Dr, New Orleans, LA",30.014282,-90.067784
108XX Chef Menteur Hwy,"10800 Chef Menteur Hwy, New Orleans, LA",30.0205527,-89.9604851
074XX Dogwood Dr,"7400 Dogwood Dr, New Orleans, LA",30.0340481,-90.0039259
037XX General De Gaulle Dr,"3700 General De Gaulle Dr, New Orleans, LA",29.9248853,-90.0205109
066XX E Hermes St,"6600 E Hermes St, New Orleans, LA",30.0211766,-90.0155121
016XX Kabel Dr,"1600 Kabel Dr, New Orleans, LA",29.9287079,-90.0073348
028XX 4th St,"2800 4th St, New Orleans, LA",,
008XX Franklin Ave,"800 Franklin Ave, New Orleans, LA",29.966078,-90.051125
080XX Pompano St,"8000 Pompano St, New Orleans, LA",30.0379526,-90.0082358
093XX Apricot St,"9300 Apricot St, New Orleans, LA",29.966938,-90.127466
004XX W Harrison Ave,"400 W Harrison Ave, New Orleans, LA",30.0057547,-90.1201876
037XX Clematis St,"3700 Clematis St, New Orleans, LA",29.9966766,-90.0533885
072XX General Haig St,"7200 General Haig St, New Orleans, LA",30.019143,-90.099844
029XX Oliver White Ave,"2900 Oliver White Ave, New Orleans, LA",29.986516,-90.03466
037XX Timber Bluff Ln,"3700 Timber Bluff Ln, New Orleans, LA",29.8977874,-89.9976622
001XX City Park Ave,"100 City Park Ave, New Orleans, LA",29.981118,-90.113188
008XX Chartres St,"800 Chartres St, New Orleans, LA",29.95828,-90.062876
054XX Chef Menteur Hwy,"5400 Chef Menteur Hwy, New Orleans, LA",30.0087528,-90.0257801
008XX Solomon Pl,"800 Solomon Pl, New Orleans, LA",29.9804266,-90.0961847
044XX S Claiborne Ave,"4400 S Claiborne Ave, New Orleans, LA",29.9397361,-90.103838
054XX Crowder Blvd,"5400 Crowder Blvd, New Orleans, LA",30.0256311,-89.990487
090XX Hickory St,"9000 Hickory St, New Orleans, LA",29.957645,-90.132852
073XX Lakeshore Dr,"7300 Lakeshore Dr, New Orleans, LA",30.022912,-90.1137114
079XX Bullard Ave,"7900 Bullard Ave, New Orleans, LA",30.0461529,-89.9612531
019XX Holiday Dr,"1900 Holiday Dr, New Orleans, LA",29.9342778,-90.0128392
014XX Behrman Ave,"1400 Behrman Ave, New Orleans, LA",29.9377458,-90.0371762
012XX N Peters St,"1200 N Peters St, New Orleans, LA",29.960381,-90.0586092
071XX E Renaissance Ct,"7100 E Renaissance Ct, New Orleans, LA",30.054064,-89.953644
034XX Humanity St,"3400 Humanity St, New Orleans, LA",29.9902393,-90.0333265
051XX Baccich St,"5100 Baccich St, New Orleans, LA",30.0107804,-90.0481986
045XX Read Blvd,"4500 Read Blvd, New Orleans, LA",30.018986,-89.968257
020XX S Claiborne Ave,"2000 S Claiborne Ave, New Orleans, LA",29.9456165,-90.088672
007XX S Broad St,"700 S Broad St, New Orleans, LA",29.9588957,-90.0933683
XX Dreyfous Dr,"XX Dreyfous Dr, New Orleans, LA",29.9850298,-90.0928891
002XX N Carrollton Ave,"200 N Carrollton Ave, New Orleans, LA",29.9752521,-90.0992437
023XX Saint Charles Ave,"2300 Saint Charles Ave, New Orleans, LA",29.9333,-90.081561
007XX Orleans Ave,"700 Orleans Ave, New Orleans, LA",29.9584086,-90.0647603
051XX Saint Claude Ave,"5100 Saint Claude Ave, New Orleans, LA",29.962346,-90.021293
024XX Piety St,"2400 Piety St, New Orleans, LA",29.980562,-90.037609
009XX Barracks St,"900 Barracks St, New Orleans, LA",29.96402,-90.062418
007XX Baronne St,"700 Baronne St, New Orleans, LA",29.9477904,-90.0736352
015XX Louisa St,"1500 Louisa St, New Orleans, LA",29.971406,-90.041294
041XX Carondelet St,"4100 Carondelet St, New Orleans, LA",29.9276612,-90.0988705
012XX Franklin Ave,"1200 Franklin Ave, New Orleans, LA",29.9700715,-90.0502953
063XX Kuebel Dr,"6300 Kuebel Dr, New Orleans, LA",,
016XX Elysian Fields Ave,"1600 Elysian Fields Ave, New Orleans, LA",29.973723,-90.057451
041XX General De Gaulle Dr,"4100 General De Gaulle Dr, New Orleans, LA",29.9211848,-90.0128937
037XX Cadillac St,"3700 Cadillac St, New Orleans, LA",,
021XX Jefferson Ave,"2100 Jefferson Ave, New Orleans, LA",29.9335163,-90.1119409
045XX N Rampart St,"4500 N Rampart St, New Orleans, LA",29.9631329,-90.0309448
006XX Toulouse St,"600 Toulouse St, New Orleans, LA",29.956632,-90.064719
021XX Marengo St,"2100 Marengo St, New Orleans, LA",29.9317695,-90.0993181
045XX Old Gentilly Rd,"4500 Old Gentilly Rd, New Orleans, LA",30.0029407,-90.0372898
035XX Monroe St,"3500 Monroe St, New Orleans, LA",29.9681399,-90.1170859
032XX Saint Thomas St,"3200 Saint Thomas St, New Orleans, LA",29.9192734,-90.0840127
001XX N Rampart St,"100 N Rampart St, New Orleans, LA",29.955767,-90.072439
067XX Chef Menteur Hwy,"6700 Chef Menteur Hwy, New Orleans, LA",30.010908,-90.010515
042XX Erato St,"4200 Erato St, New Orleans, LA",29.9552451,-90.1010219
087XX Chef Menteur Hwy,"8700 Chef Menteur Hwy, New Orleans, LA",30.0146002,-89.9841771
012XX Canal St,"1200 Canal St, New Orleans, LA",29.9560038,-90.0739853
005XX Read Blvd,"500 Read Blvd, New Orleans, LA",30.034015,-89.973746
014XX Lesseps St,"1400 Lesseps St, New Orleans, LA",29.968138,-90.031714
101XX Plainfield Dr,"10100 Plainfield Dr, New Orleans, LA",30.039843,-89.977037
036XX General De Gaulle Dr,"3600 General De Gaulle Dr, New Orleans, LA",29.925691,-90.022061
078XX Read Blvd,"7800 Read Blvd, New Orleans, LA",30.0466891,-89.9827797
020XX Earhart Blvd,"2000 Earhart Blvd, New Orleans, LA",29.9669085,-90.1272812
051XX Metropolitan Dr,"5100 Metropolitan Dr, New Orleans, LA",30.011515,-90.039283
010XX Gravier St,"1000 Gravier St, New Orleans, LA",29.952834,-90.073713
048XX Tchoupitoulas St,"4800 Tchoupitoulas St, New Orleans, LA",29.9168321,-90.1043291
066XX Dwyer Rd,"6600 Dwyer Rd, New Orleans, LA",30.0205813,-90.0134058
XX Poydras St,"XX Poydras St, New Orleans, LA",29.9551934,-90.0858723
069XX Bunker Hill Rd,"6900 Bunker Hill Rd, New Orleans, LA",30.032745,-89.989195
039XX N Derbigny St,"3900 N Derbigny St, New Orleans, LA",29.971856,-90.034423
017XX S Jefferson Davis Pkwy,"1700 S Jefferson Davis Pkwy, New Orleans, LA",,
045XX Macarthur Blvd,"4500 Macarthur Blvd, New Orleans, LA",29.9242149,-90.0093608
064XX Saint Bernard Ave,"6400 Saint Bernard Ave, New Orleans, LA",29.9783021,-90.0687752
057XX Morrison Rd,"5700 Morrison Rd, New Orleans, LA",30.024865,-90.02953
005XX Crowder Blvd,"500 Crowder Blvd, New Orleans, LA",30.0149478,-89.9882283
018XX Magnolia St,"1800 Magnolia St, New Orleans, LA",29.944057,-90.086447
006XX N Broad St,"600 N Broad St, New Orleans, LA",29.969216,-90.083954
002XX Carondelet St,"200 Carondelet St, New Orleans, LA",29.9524243,-90.0707727
037XX Clio St,"3700 Clio St, New Orleans, LA",29.9556582,-90.0993551
015XX N Prieur St,"1500 N Prieur St, New Orleans, LA",29.9729064,-90.069667
005XX S Jefferson Davis Pkwy,"500 S Jefferson Davis Pkwy, New Orleans, LA",,
057XX Pasteur Blvd,"5700 Pasteur Blvd, New Orleans, LA",30.016773,-90.063251
045XX Francisco Verrett Dr,"4500 Francisco Verrett Dr, New Orleans, LA",30.0153917,-89.9952594
051XX General De Gaulle Dr,"5100 General De Gaulle Dr, New Orleans, LA",29.9155242,-90.0068077
130XX Patterson Rd,"13000 Patterson Rd, New Orleans, LA",29.894813,-89.9121788
057XX Pauline Dr,"5700 Pauline Dr, New Orleans, LA",30.0197021,-90.0346364
028XX Dryades St,"2800 Dryades St, New Orleans, LA",29.933125,-90.088265
007XX Hendee St,"700 Hendee St, New Orleans, LA",29.948034,-90.038528
050XX Camp St,"5000 Camp St, New Orleans, LA",29.921245,-90.109206
051XX Tullis Dr,"5100 Tullis Dr, New Orleans, LA",29.9056831,-89.9902343
018XX S Liberty St,"1800 S Liberty St, New Orleans, LA",29.941378,-90.083458
034XX 3rd St,"3400 3rd St, New Orleans, LA",29.9107129,-89.9721216
003XX Loyola Ave,"300 Loyola Ave, New Orleans, LA",29.953279,-90.0750378
067XX Tara Ln,"6700 Tara Ln, New Orleans, LA",30.0289443,-89.9846259
022XX Lakeshore Dr,"2200 Lakeshore Dr, New Orleans, LA",30.0236515,-90.1134393
006XX Chef Menteur Hwy,"600 Chef Menteur Hwy, New Orleans, LA",30.0076819,-90.0299159
052XX Spain St,"5200 Spain St, New Orleans, LA",30.012041,-90.056851
006XX Decatur St,"600 Decatur St, New Orleans, LA",29.9559171,-90.0630927
XX Canal St,"XX Canal St, New Orleans, LA",29.95603,-90.07349
022XX Bienville St,"2200 Bienville St, New Orleans, LA",29.96384,-90.081028
012XX Mandeville St,"1200 Mandeville St, New Orleans, LA",29.9697975,-90.0546712
004XX Burgundy St,"400 Burgundy St, New Orleans, LA",29.9575253,-90.0693741
009XX Poeyfarre St,"900 Poeyfarre St, New Orleans, LA",29.941359,-90.067874
001XX Baronne St,"100 Baronne St, New Orleans, LA",29.954156,-90.070994
066XX Argonne Blvd,"6600 Argonne Blvd, New Orleans, LA",30.010078,-90.102226
025XX N Rampart St,"2500 N Rampart St, New Orleans, LA",29.9676634,-90.0519113
017XX Arts St,"1700 Arts St, New Orleans, LA",29.975175,-90.050467
003XX N Rampart St,"300 N Rampart St, New Orleans, LA",29.957373,-90.071027
052XX Tchoupitoulas St,"5200 Tchoupitoulas St, New Orleans, LA",29.916434,-90.111327
024XX Elysian Fields Ave,"2400 Elysian Fields Ave, New Orleans, LA",29.9825145,-90.0582194
117XX Morrison Rd,"11700 Morrison Rd, New Orleans, LA",30.05012,-89.966663
025XX Burdette St,"2500 Burdette St, New Orleans, LA",29.954858,-90.117167
003XX Basin St,"300 Basin St, New Orleans, LA",29.957765,-90.071613
063XX Canal Blvd,"6300 Canal Blvd, New Orleans, LA",30.0050054,-90.1085099
039XX I-10 E,"3900 I-10 E, New Orleans, LA",30.0414997,-89.9688243
008XX N Broad St,"800 N Broad St, New Orleans, LA",29.9713123,-90.0821005
080XX Bass St,"8000 Bass St, New Orleans, LA",30.0720865,-89.9467955
029XX Kabel Dr,"2900 Kabel Dr, New Orleans, LA",29.9247522,-90.0075553
139XX Wales St,"13900 Wales St, New Orleans, LA",30.0664184,-89.9515484
042XX S Johnson St,"4200 S Johnson St, New Orleans, LA",29.9439795,-90.1015974
022XX Saint Thomas St,"2200 Saint Thomas St, New Orleans, LA",29.925438,-90.07339
001XX Carondelet St,"100 Carondelet St, New Orleans, LA",29.953538,-90.070035
101XX Dwyer Rd,"10100 Dwyer Rd, New Orleans, LA",30.0246704,-89.9845974
033XX Clematis St,"3300 Clematis St, New Orleans, LA",29.9928219,-90.0508323
034XX Dickens Dr,"3400 Dickens Dr, New Orleans, LA",29.9182247,-89.9837666
009XX Poydras St,"900 Poydras St, New Orleans, LA",29.9499715,-90.0732633
012XX Charbonnet St,"1200 Charbonnet St, New Orleans, LA",29.961798,-90.013685
033XX Urquhart St,"3300 Urquhart St, New Orleans, LA",29.968885,-90.040885
032XX Gentilly Blvd,"3200 Gentilly Blvd, New Orleans, LA",30.000176,-90.058329
026XX Joliet St,"2600 Joliet St, New Orleans, LA",29.960381,-90.122298
019XX France St,"1900 France St, New Orleans, LA",29.973553,-90.031147
005XX Camp St,"500 Camp St, New Orleans, LA",29.9487636,-90.0693385
020XX Caton St,"2000 Caton St, New Orleans, LA",29.998678,-90.062297
019XX Saint Claude Ave,"1900 Saint Claude Ave, New Orleans, LA",29.968098,-90.060221
005XX Saint Louis St,"500 Saint Louis St, New Orleans, LA",29.955226,-90.0645026
017XX Desire St,"1700 Desire St, New Orleans, LA",29.973046,-90.03873
020XX Lakeshore Dr,"2000 Lakeshore Dr, New Orleans, LA",30.0285648,-90.0658687
008XX Adele St,"800 Adele St, New Orleans, LA",29.9282135,-90.0733094
057XX Crowder Blvd,"5700 Crowder Blvd, New Orleans, LA",30.0283017,-89.9943068
004XX N Broad St,"400 N Broad St, New Orleans, LA",29.9680884,-90.0847336
070XX Crowder Blvd,"7000 Crowder Blvd, New Orleans, LA",30.031246,-89.99456
014XX Teche St,"1400 Teche St, New Orleans, LA",29.9411006,-90.0517347
063XX Elysian Fields,"6300 Elysian Fields, New Orleans, LA",30.023484,-90.0618355
021XX St Ann St,"2100 St Ann St, New Orleans, LA",29.967228,-90.076447
015XX St Charles Ave,"1500 St Charles Ave, New Orleans, LA",29.938856,-90.075404
093XX Airline Hwy,"9300 Airline Hwy, New Orleans, LA",,
045XX Press Dr,"4500 Press Dr, New Orleans, LA",30.0056833,-90.0412897
015XX Basin St,"1500 Basin St, New Orleans, LA",29.9569268,-90.0728869
069XX Lake Kenilworth Dr,"6900 Lake Kenilworth Dr, New Orleans, LA",,
032XX Eagle St,"3200 Eagle St, New Orleans, LA",29.966604,-90.120184
043XX Woodland Dr,"4300 Woodland Dr, New Orleans, LA",29.9082596,-89.9927098
003XX S Broad St,"300 S Broad St, New Orleans, LA",29.963598,-90.0887728
014XX Columbus St,"1400 Columbus St, New Orleans, LA",29.969892,-90.065598
014XX Tulane Ave,"1400 Tulane Ave, New Orleans, LA",29.9553458,-90.0769572
019XX Saint Louis St,"1900 Saint Louis St, New Orleans, LA",29.963546,-90.076951
015XX Elysian Fields Ave,"1500 Elysian Fields Ave, New Orleans, LA",29.972678,-90.0574687
047XX Paris Ave,"4700 Paris Ave, New Orleans, LA",30.0062436,-90.0753762
008XX 4th St,"800 4th St, New Orleans, LA",,
036XX Plymouth Pl,"3600 Plymouth Pl, New Orleans, LA",29.9163387,-90.0012069
006XX N Rampart St,"600 N Rampart St, New Orleans, LA",29.9597,-90.068939
047XX Washington Ave,"4700 Washington Ave, New Orleans, LA",29.95924,-90.105043
005XX General Pershing St,"500 General Pershing St, New Orleans, LA",29.9174542,-90.1000045
052XX Constance St,"5200 Constance St, New Orleans, LA",29.9192051,-90.1111668
002XX Decatur St,"200 Decatur St, New Orleans, LA",29.9527595,-90.0660999
030XX Louisiana Avenue Pkwy,"3000 Louisiana Avenue Pkwy, New Orleans, LA",29.941275,-90.097726
033XX Louisa St,"3300 Louisa St, New Orleans, LA",29.991125,-90.035388
014XX Franklin Ave,"1400 Franklin Ave, New Orleans, LA",29.972167,-90.049496
039XX Downman Rd,"3900 Downman Rd, New Orleans, LA",30.009927,-90.020989
030XX Saint Ann St,"3000 Saint Ann St, New Orleans, LA",29.9733011,-90.0856582
051XX N Claiborne Ave,"5100 N Claiborne Ave, New Orleans, LA",29.967054,-90.019683
004XX Esplanade Ave,"400 Esplanade Ave, New Orleans, LA",29.9613787,-90.0577963
009XX N Claiborne Ave,"900 N Claiborne Ave, New Orleans, LA",29.96549,-90.071665
046XX Chef Menteur Hwy,"4600 Chef Menteur Hwy, New Orleans, LA",30.0050505,-90.0351877
007XX Lesseps St,"700 Lesseps St, New Orleans, LA",29.960983,-90.033861
023XX Canal St,"2300 Canal St, New Orleans, LA",29.962632,-90.083342
018XX Elysian Fields Ave,"1800 Elysian Fields Ave, New Orleans, LA",29.975755,-90.057604
022XX Saint Andrew St,"2200 Saint Andrew St, New Orleans, LA",29.940371,-90.083338
043XX Chef Menteur Hwy,"4300 Chef Menteur Hwy, New Orleans, LA",30.070509,-89.804994
011XX Louisa St,"1100 Louisa St, New Orleans, LA",29.967505,-90.042484
010XX Pelican Ave,"1000 Pelican Ave, New Orleans, LA",29.953219,-90.045701
035XX Martin Luther King Jr Blvd,"3500 Martin Luther King Jr Blvd, New Orleans, LA",29.948994,-90.093505
014XX N Robertson St,"1400 N Robertson St, New Orleans, LA",29.969663,-90.066728
010XX Loyola Ave,"1000 Loyola Ave, New Orleans, LA",29.9458852,-90.0774199
010XX City Park Ave,"1000 City Park Ave, New Orleans, LA",29.9832446,-90.0967437
013XX Terry St,"1300 Terry St, New Orleans, LA",29.9412336,-90.0191847
053XX Franklin Ave,"5300 Franklin Ave, New Orleans, LA",30.01239,-90.051142
039XX S Inwood Ave,"3900 S Inwood Ave, New Orleans, LA",,
015XX Delachaise St,"1500 Delachaise St, New Orleans, LA",29.926569,-90.092048
024XX Dauphine St,"2400 Dauphine St, New Orleans, LA",29.965658,-90.054008
089XX Earhart Blvd,"8900 Earhart Blvd, New Orleans, LA",29.9669085,-90.1272812
054XX N Rampart St,"5400 N Rampart St, New Orleans, LA",29.9604292,-90.0188512
016XX Nashville Ave,"1600 Nashville Ave, New Orleans, LA",29.930459,-90.116603
023XX Leon C Simon Dr,"2300 Leon C Simon Dr, New Orleans, LA",30.0250042,-90.0587149
027XX Elysian Fields Ave,"2700 Elysian Fields Ave, New Orleans, LA",29.9838685,-90.0578595
048XX Saint Anthony Ave,"4800 Saint Anthony Ave, New Orleans, LA",30.006893,-90.06479
054XX Elysian Fields Ave,"5400 Elysian Fields Ave, New Orleans, LA",30.0132807,-90.0606679
010XX Delery St,"1000 Delery St, New Orleans, LA",29.957782,-90.008818
001XX Canal St,"100 Canal St, New Orleans, LA",29.9495883,-90.0644406
056XX Elysian Fields Ave,"5600 Elysian Fields Ave, New Orleans, LA",30.0156652,-90.0610921
062XX N Rampart St,"6200 N Rampart St, New Orleans, LA",29.958195,-90.01057
076XX Willow St,"7600 Willow St, New Orleans, LA",29.945497,-90.124403
063XX Burgundy St,"6300 Burgundy St, New Orleans, LA",29.95694,-90.010055
003XX N Carrollton Ave,"300 N Carrollton Ave, New Orleans, LA",29.9761324,-90.0981645
010XX Conti St,"1000 Conti St, New Orleans, LA",29.957526,-90.0696874
010XX Dublin St,"1000 Dublin St, New Orleans, LA",29.94683,-90.1321932
022XX Westbend Pkwy,"2200 Westbend Pkwy, New Orleans, LA",29.9310652,-90.0197357
044XX Joycelyn Dr,"4400 Joycelyn Dr, New Orleans, LA",29.9074584,-89.985394
004XX Poydras St,"400 Poydras St, New Orleans, LA",29.9484257,-90.0678954
003XX 28th St,"300 28th St, New Orleans, LA",30.0073075,-90.1189168
025XX Bienville St,"2500 Bienville St, New Orleans, LA",29.9654377,-90.083646
040XX D'Hemecourt St,"4000 D'Hemecourt St, New Orleans, LA",29.96947,-90.103489
061XX Catina St,"6100 Catina St, New Orleans, LA",30.0014838,-90.1140668
047XX Francis Dr,"4700 Francis Dr, New Orleans, LA",30.017022,-90.014396
049XX Elysian Fields Ave,"4900 Elysian Fields Ave, New Orleans, LA",30.0084268,-90.0604321
001XX S Cortez St,"100 S Cortez St, New Orleans, LA",29.972116,-90.0978275
004XX Dauphine St,"400 Dauphine St, New Orleans, LA",29.9568912,-90.0685002
063XX Fairfax Pl,"6300 Fairfax Pl, New Orleans, LA",29.915833,-89.9873827
032XX Tulane Ave,"3200 Tulane Ave, New Orleans, LA",29.964089,-90.0962535
003XX N Broad St,"300 N Broad St, New Orleans, LA",29.9670753,-90.0844448
014XX Murl St,"1400 Murl St, New Orleans, LA",29.94113,-90.024176
054XX Lafaye St,"5400 Lafaye St, New Orleans, LA",30.0143967,-90.0491953
008XX Poydras St,"800 Poydras St, New Orleans, LA",29.9497411,-90.0723149
034XX Pauger St,"3400 Pauger St, New Orleans, LA",29.9846147,-90.0619205
039XX Orleans Ave,"3900 Orleans Ave, New Orleans, LA",29.978174,-90.094193
033XX Earhart Blvd,"3300 Earhart Blvd, New Orleans, LA",29.951248,-90.089781
069XX Foch Rd,"6900 Foch Rd, New Orleans, LA",30.023212,-90.019369
016XX Clio St,"1600 Clio St, New Orleans, LA",29.941374,-90.074089
031XX Banks St,"3100 Banks St, New Orleans, LA",29.965599,-90.093917
013XX Southlawn Blvd,"1300 Southlawn Blvd, New Orleans, LA",29.941509,-90.02509
045XX Wilson Ave,"4500 Wilson Ave, New Orleans, LA",30.0154763,-89.9991955
007XX Toledano St,"700 Toledano St, New Orleans, LA",29.919553,-90.085851
068XX Curran Blvd,"6800 Curran Blvd, New Orleans, LA",30.033625,-90.014063
035XX Louisiana Avenue Pkwy,"3500 Louisiana Avenue Pkwy, New Orleans, LA",29.9455907,-90.0995485
017XX Reynes St,"1700 Reynes St, New Orleans, LA",29.968868,-90.020274
028XX Gentilly Blvd,"2800 Gentilly Blvd, New Orleans, LA",29.9949051,-90.0634354
024XX Ursulines Ave,"2400 Ursulines Ave, New Orleans, LA",29.971396,-90.0769689
025XX Leon C Simon Dr,"2500 Leon C Simon Dr, New Orleans, LA",30.0222897,-90.0734152
001XX 14th St,"100 14th St, New Orleans, LA",30.001423,-90.116255
061XX Music St,"6100 Music St, New Orleans, LA",30.021366,-90.055267
030XX 1st St,"3000 1st St, New Orleans, LA",,
013XX General Ogden St,"1300 General Ogden St, New Orleans, LA",29.9535562,-90.135671
035XX Cambronne St,"3500 Cambronne St, New Orleans, LA",29.966082,-90.114688
022XX Canal St,"2200 Canal St, New Orleans, LA",29.962106,-90.082574
042XX Baudin St,"4200 Baudin St, New Orleans, LA",29.972172,-90.10554
019XX Wilton Dr,"1900 Wilton Dr, New Orleans, LA",30.0091629,-90.0663755
028XX Danneel St,"2800 Danneel St, New Orleans, LA",29.933933,-90.088875
025XX Monticello Ave,"2500 Monticello Ave, New Orleans, LA",29.9684671,-90.1275861
078XX Morrison Rd,"7800 Morrison Rd, New Orleans, LA",30.0327925,-90.0032156
010XX Oretha Castle Haley Blvd,"1000 Oretha Castle Haley Blvd, New Orleans, LA",29.9411245,-90.079151
014XX N Claiborne Ave,"1400 N Claiborne Ave, New Orleans, LA",29.969383,-90.068204
008XX Toulouse St,"800 Toulouse St, New Orleans, LA",29.957833,-90.066519
007XX S Carrollton Ave,"700 S Carrollton Ave, New Orleans, LA",29.9442617,-90.13378
027XX Jonquil St,"2700 Jonquil St, New Orleans, LA",29.9984455,-90.0474557
003XX N Johnson St,"300 N Johnson St, New Orleans, LA",29.963277,-90.079685
006XX Calliope St,"600 Calliope St, New Orleans, LA",29.9423703,-90.0734672
064XX Franklin Ave,"6400 Franklin Ave, New Orleans, LA",30.0248253,-90.0524289
023XX Saint Louis St,"2300 Saint Louis St, New Orleans, LA",29.96592,-90.080429
036XX Franklin Ave,"3600 Franklin Ave, New Orleans, LA",29.9953873,-90.0500443
015XX Behrman Ave,"1500 Behrman Ave, New Orleans, LA",29.9377458,-90.0371762
005XX Basin St,"500 Basin St, New Orleans, LA",29.959317,-90.070228
019XX Louisa St,"1900 Louisa St, New Orleans, LA",29.9755624,-90.040239
049XX N Rampart St,"4900 N Rampart St, New Orleans, LA",29.961742,-90.02441
147XX Chef Menteur Hwy,"14700 Chef Menteur Hwy, New Orleans, LA",30.0374547,-89.9086594
005XX S Peters St,"500 S Peters St, New Orleans, LA",29.948312,-90.065777
023XX Terpsichore St,"2300 Terpsichore St, New Orleans, LA",29.9416491,-90.0818695
053XX Lafaye St,"5300 Lafaye St, New Orleans, LA",30.013367,-90.048959
002XX Delaronde St,"200 Delaronde St, New Orleans, LA",29.9528487,-90.0539328
040XX Downman Rd,"4000 Downman Rd, New Orleans, LA",30.011987,-90.0213586
090XX Chef Menteur Hwy,"9000 Chef Menteur Hwy, New Orleans, LA",30.0150131,-89.9806332
105XX Curran Blvd,"10500 Curran Blvd, New Orleans, LA",30.0366553,-90.00419
022XX Washington Ave,"2200 Washington Ave, New Orleans, LA",29.935939,-90.089819
018XX Burgundy St,"1800 Burgundy St, New Orleans, LA",29.9660469,-90.0617564
061XX Tullis Dr,"6100 Tullis Dr, New Orleans, LA",29.9016528,-89.9960044
049XX Clara St,"4900 Clara St, New Orleans, LA",29.9377555,-90.1076906
006XX Poydras St,"600 Poydras St, New Orleans, LA",29.9551934,-90.0858723
027XX Canal St,"2700 Canal St, New Orleans, LA",29.9655099,-90.0877437
120XX S I-10 Service Rd,"12000 S I-10 Service Rd, New Orleans, LA",,
074XX Bullard Ave,"7400 Bullard Ave, New Orleans, LA",30.0500218,-89.9647755
043XX Tulane Ave,"4300 Tulane Ave, New Orleans, LA",29.9674878,-90.1032662
015XX Franklin Ave,"1500 Franklin Ave, New Orleans, LA",29.973126,-90.049194
033XX Huntlee Dr,"3300 Huntlee Dr, New Orleans, LA",29.9204533,-90.004465
015XX S Robertson St,"1500 S Robertson St, New Orleans, LA",29.944263,-90.085185
007XX Patterson Dr,"700 Patterson Dr, New Orleans, LA",29.9441256,-90.0175821
102XX Springwood St,"10200 Springwood St, New Orleans, LA",30.0207169,-89.9668157
046XX Francisco Verrett Dr,"4600 Francisco Verrett Dr, New Orleans, LA",30.0174745,-89.9954019
064XX Isadore St,"6400 Isadore St, New Orleans, LA",29.923434,-89.984966
054XX Urquhart St,"5400 Urquhart St, New Orleans, LA",29.963632,-90.017734
022XX Ursulines Ave,"2200 Ursulines Ave, New Orleans, LA",29.9702124,-90.0751687
005XX Natchez St,"500 Natchez St, New Orleans, LA",29.9496463,-90.0681163
079XX Chef Menteur Hwy,"7900 Chef Menteur Hwy, New Orleans, LA",30.0127679,-89.9941804
061XX Magazine St,"6100 Magazine St, New Orleans, LA",29.9226458,-90.1236287
039XX N Claiborne Ave,"3900 N Claiborne Ave, New Orleans, LA",29.970829,-90.03474
119XX Hayne Blvd,"11900 Hayne Blvd, New Orleans, LA",30.05664,-89.970434
001XX Elk Pl,"100 Elk Pl, New Orleans, LA",29.9556141,-90.0735257
022XX Simon Bolivar Ave,"2200 Simon Bolivar Ave, New Orleans, LA",29.9386281,-90.0849308
060XX Old Gentilly Rd,"6000 Old Gentilly Rd, New Orleans, LA",30.007543,-90.01819
062XX Chef Menteur Hwy,"6200 Chef Menteur Hwy, New Orleans, LA",30.010399,-90.015146
003XX Bellaire Dr,"300 Bellaire Dr, New Orleans, LA",29.983625,-90.123326
060XX Bellaire Dr,"6000 Bellaire Dr, New Orleans, LA",30.0003116,-90.1223219
008XX N Miro St,"800 N Miro St, New Orleans, LA",29.968451,-90.077865
010XX N Broad St,"1000 N Broad St, New Orleans, LA",29.972941,-90.08052
043XX Magazine St,"4300 Magazine St, New Orleans, LA",29.920647,-90.1003316
015XX Terpsichore St,"1500 Terpsichore St, New Orleans, LA",29.937572,-90.074809
015XX Charbonnet St,"1500 Charbonnet St, New Orleans, LA",29.964922,-90.012678
139XX Chef Menteur Hwy,"13900 Chef Menteur Hwy, New Orleans, LA",30.0352437,-89.9145953
082XX Palmetto St,"8200 Palmetto St, New Orleans, LA",29.9665874,-90.1114239
027XX Orleans Ave,"2700 Orleans Ave, New Orleans, LA",29.970789,-90.083101
048XX Perelli Dr,"4800 Perelli Dr, New Orleans, LA",30.022794,-89.971915
026XX Dumaine St,"2600 Dumaine St, New Orleans, LA",29.9712,-90.080351
030XX General Meyer Ave,"3000 General Meyer Ave, New Orleans, LA",29.941659,-90.025005
016XX Saint Philip St,"1600 Saint Philip St, New Orleans, LA",29.965804,-90.070478
003XX N Hennessey St,"300 N Hennessey St, New Orleans, LA",29.978025,-90.101521
006XX Downman Rd,"600 Downman Rd, New Orleans, LA",30.0083419,-90.0208291
044XX Dale St,"4400 Dale St, New Orleans, LA",30.0143184,-90.0103246
075XX Bullard Ave,"7500 Bullard Ave, New Orleans, LA",30.052421,-89.966607
113XX Prentiss Ave,"11300 Prentiss Ave, New Orleans, LA",30.02354,-89.9548386
044XX Jeanne Marie Pl,"4400 Jeanne Marie Pl, New Orleans, LA",,
061XX Stratford Pl,"6100 Stratford Pl, New Orleans, LA",29.9127068,-89.9899599
011XX Simon Bolivar Ave,"1100 Simon Bolivar Ave, New Orleans, LA",29.9449,-90.079234
018XX St Thomas St,"1800 St Thomas St, New Orleans, LA",29.928467,-90.069105
008XX Saint Peter St,"800 Saint Peter St, New Orleans, LA",29.95858,-90.065796
079XX Downman Rd,"7900 Downman Rd, New Orleans, LA",30.0315162,-90.0266949
006XX Convention Center Blvd,"600 Convention Center Blvd, New Orleans, LA",29.946824,-90.064529
008XX Saint Louis St,"800 Saint Louis St, New Orleans, LA",29.957023,-90.067217
046XX Downman Rd,"4600 Downman Rd, New Orleans, LA",30.0163517,-90.0217945
045XX Cerise Ave,"4500 Cerise Ave, New Orleans, LA",30.0167436,-89.9813611
020XX St Claude Ave,"2000 St Claude Ave, New Orleans, LA",29.9681653,-90.0591607
037XX Humanity St,"3700 Humanity St, New Orleans, LA",29.9896395,-90.0305369
023XX St Claude Ave,"2300 St Claude Ave, New Orleans, LA",29.9680117,-90.0537653
028XX S Johnson St,"2800 S Johnson St, New Orleans, LA",29.945584,-90.097018
040XX Burgundy St,"4000 Burgundy St, New Orleans, LA",29.963317,-90.035948
022XX S Liberty St,"2200 S Liberty St, New Orleans, LA",29.939795,-90.085671
027XX Mlk Blvd,"2700 Mlk Blvd, New Orleans, LA",,
011XX N Broad St,"1100 N Broad St, New Orleans, LA",29.9739619,-90.079758
008XX Antonine St,"800 Antonine St, New Orleans, LA",29.919135,-90.091626
032XX Memorial Park Dr,"3200 Memorial Park Dr, New Orleans, LA",29.9203373,-90.0243622
004XX Le Boeuf St,"400 Le Boeuf St, New Orleans, LA",,
035XX Iberville St,"3500 Iberville St, New Orleans, LA",29.971777,-90.094461
002XX Camp St,"200 Camp St, New Orleans, LA",29.951556,-90.0685396
010XX Verret St,"1000 Verret St, New Orleans, LA",29.945437,-90.050039
012XX Independence St,"1200 Independence St, New Orleans, LA",29.9672841,-90.0379137
018XX Prytania St,"1800 Prytania St, New Orleans, LA",29.935047,-90.0764283
037XX Bienville St,"3700 Bienville St, New Orleans, LA",29.973645,-90.095437
069XX Lake Willow Dr,"6900 Lake Willow Dr, New Orleans, LA",30.0293951,-89.9983462
004XX N Peters St,"400 N Peters St, New Orleans, LA",29.9545964,-90.0643144
036XX Metropolitan St,"3600 Metropolitan St, New Orleans, LA",29.994069,-90.035456
015XX N Broad St,"1500 N Broad St, New Orleans, LA",29.977713,-90.076522
008XX Jackson Ave,"800 Jackson Ave, New Orleans, LA",29.927207,-90.074876
034XX Tulane Ave,"3400 Tulane Ave, New Orleans, LA",29.9642754,-90.1003343
006XX S Dupre St,"600 S Dupre St, New Orleans, LA",29.962828,-90.093353
054XX N Tonti St,"5400 N Tonti St, New Orleans, LA",29.973785,-90.013605
019XX Hendee St,"1900 Hendee St, New Orleans, LA",29.9343207,-90.0394128
001XX N Galvez St,"100 N Galvez St, New Orleans, LA",29.962562,-90.081546
002XX Henry Clay Ave,"200 Henry Clay Ave, New Orleans, LA",29.9178692,-90.1276405
023XX Saint Anthony St,"2300 Saint Anthony St, New Orleans, LA",29.9805027,-90.0626367
064XX Peony St,"6400 Peony St, New Orleans, LA",29.9131495,-89.9849347
045XX Paris Ave,"4500 Paris Ave, New Orleans, LA",30.0039306,-90.0744625
043XX Saint Claude Ave,"4300 Saint Claude Ave, New Orleans, LA",29.964851,-90.032459
031XX Wall Blvd,"3100 Wall Blvd, New Orleans, LA",29.934259,-90.024294
049XX Tchoupitoulas St,"4900 Tchoupitoulas St, New Orleans, LA",29.9164039,-90.1083077
072XX Bunker Hill Rd,"7200 Bunker Hill Rd, New Orleans, LA",30.0362532,-89.9911984
011XX Independence St,"1100 Independence St, New Orleans, LA",29.966507,-90.038082
021XX Saint Roch Ave,"2100 Saint Roch Ave, New Orleans, LA",30.014022,-90.0558601
016XX S Rendon St,"1600 S Rendon St, New Orleans, LA",29.954448,-90.104903
053XX Saint Anthony Ave,"5300 Saint Anthony Ave, New Orleans, LA",30.0123728,-90.0654009
028XX Josephine St,"2800 Josephine St, New Orleans, LA",29.9440524,-90.0878014
076XX Burthe St,"7600 Burthe St, New Orleans, LA",29.941943,-90.128125
077XX Michigan St,"7700 Michigan St, New Orleans, LA",30.051661,-89.971959
058XX Bullard Ave,"5800 Bullard Ave, New Orleans, LA",30.039497,-89.955852
010XX Crete St,"1000 Crete St, New Orleans, LA",29.974428,-90.080407
032XX Dauphine St,"3200 Dauphine St, New Orleans, LA",29.9637625,-90.0432115
030XX Gen De Gaulle Dr,"3000 Gen De Gaulle Dr, New Orleans, LA",29.9280929,-90.0277623
008XX Lyons St,"800 Lyons St, New Orleans, LA",29.919437,-90.107175
027XX Saint Claude Ave,"2700 Saint Claude Ave, New Orleans, LA",29.9685318,-90.0491643
043XX Saint Bernard Ave,"4300 Saint Bernard Ave, New Orleans, LA",30.000722,-90.081958
020XX Lawrence St,"2000 Lawrence St, New Orleans, LA",29.938807,-90.037089
011XX Oretha Castle Haley Blvd,"1100 Oretha Castle Haley Blvd, New Orleans, LA",29.943771,-90.077056
007XX Howard Ave,"700 Howard Ave, New Orleans, LA",29.943522,-90.073121
024XX N Robertson St,"2400 N Robertson St, New Orleans, LA",29.972821,-90.052166
040XX Canal St,"4000 Canal St, New Orleans, LA",29.973723,-90.099692
043XX General De Gaulle Dr,"4300 General De Gaulle Dr, New Orleans, LA",29.920572,-90.012633
038XX General De Gaulle Dr,"3800 General De Gaulle Dr, New Orleans, LA",29.9238239,-90.017288
033XX Canal St,"3300 Canal St, New Orleans, LA",29.969234,-90.093123
073XX Read Blvd,"7300 Read Blvd, New Orleans, LA",30.041245,-89.9789344
031XX N Tonti St,"3100 N Tonti St, New Orleans, LA",29.979861,-90.040383
017XX Holiday Dr,"1700 Holiday Dr, New Orleans, LA",29.9356835,-90.0126865
062XX Wainwright Dr,"6200 Wainwright Dr, New Orleans, LA",30.021831,-90.067733
065XX Morrison Rd,"6500 Morrison Rd, New Orleans, LA",30.0281332,-90.0162221
025XX Nashville Ave,"2500 Nashville Ave, New Orleans, LA",29.9387117,-90.1137155
035XX Magazine St,"3500 Magazine St, New Orleans, LA",29.9222555,-90.0908052
057XX Saint Charles Ave,"5700 Saint Charles Ave, New Orleans, LA",29.9295331,-90.1160518
057XX Read Blvd,"5700 Read Blvd, New Orleans, LA",30.032918,-89.973336
041XX Eden St,"4100 Eden St, New Orleans, LA",29.951998,-90.102178
021XX S Roman St,"2100 S Roman St, New Orleans, LA",29.9471365,-90.090524
008XX Saint Ferdinand St,"800 Saint Ferdinand St, New Orleans, LA",29.96551,-90.04928
015XX Magazine St,"1500 Magazine St, New Orleans, LA",29.9342199,-90.0723149
012XX Saint Bernard Ave,"1200 Saint Bernard Ave, New Orleans, LA",29.9681621,-90.06313
033XX Coliseum St,"3300 Coliseum St, New Orleans, LA",29.925984,-90.089031
038XX Tulane Ave,"3800 Tulane Ave, New Orleans, LA",29.967102,-90.102598
063XX Urquhart St,"6300 Urquhart St, New Orleans, LA",29.960881,-90.008169
006XX Pirates Aly,"600 Pirates Aly, New Orleans, LA",,
006XX Saint Mary St,"600 Saint Mary St, New Orleans, LA",29.927923,-90.070155
005XX Julia St,"500 Julia St, New Orleans, LA",29.9455176,-90.0693627
036XX Almonaster Ave,"3600 Almonaster Ave, New Orleans, LA",29.9960477,-90.0417178
019XX Adams St,"1900 Adams St, New Orleans, LA",29.9497955,-90.1211131
061XX Elysian Fields Ave,"6100 Elysian Fields Ave, New Orleans, LA",30.0210434,-90.0614809
046XX Lynhuber Dr,"4600 Lynhuber Dr, New Orleans, LA",,
066XX W Laverne St,"6600 W Laverne St, New Orleans, LA",30.02051,-90.020234
076XX Almonaster Ave,"7600 Almonaster Ave, New Orleans, LA",29.9865677,-90.0442962
022XX Independence St,"2200 Independence St, New Orleans, LA",29.977692,-90.034737
019XX Elizardi Blvd,"1900 Elizardi Blvd, New Orleans, LA",29.9326821,-90.0266497
051XX Canal Blvd,"5100 Canal Blvd, New Orleans, LA",29.983972,-90.110789
030XX Delachaise St,"3000 Delachaise St, New Orleans, LA",29.9410182,-90.0988824
030XX Serantine St,"3000 Serantine St, New Orleans, LA",29.986518,-90.0748939
029XX Robert St,"2900 Robert St, New Orleans, LA",29.940932,-90.10821
024XX Saint Bernard Ave,"2400 Saint Bernard Ave, New Orleans, LA",29.9803689,-90.070314
055XX Elysian Fields Ave,"5500 Elysian Fields Ave, New Orleans, LA",30.0146742,-90.0609999
026XX O'Reilly St,"2600 O'Reilly St, New Orleans, LA",29.982599,-90.072766
023XX Peniston St,"2300 Peniston St, New Orleans, LA",29.93393,-90.097523
027XX Gladiolus St,"2700 Gladiolus St, New Orleans, LA",29.999349,-90.047542
068XX E Coronet Ct,"6800 E Coronet Ct, New Orleans, LA",30.026118,-89.997599
024XX Frenchmen St,"2400 Frenchmen St, New Orleans, LA",29.9817276,-90.0592866
010XX Common St,"1000 Common St, New Orleans, LA",29.953777,-90.07324
008XX Fulton St,"800 Fulton St, New Orleans, LA",29.944314,-90.065136
029XX Copernicus St,"2900 Copernicus St, New Orleans, LA",29.935,-90.025636
024XX General De Gaulle Dr,"2400 General De Gaulle Dr, New Orleans, LA",29.9305911,-90.0336319
049XX Prytania St,"4900 Prytania St, New Orleans, LA",29.9243745,-90.107929
008XX N Olympia St,"800 N Olympia St, New Orleans, LA",29.9835832,-90.1009699
078XX Means Ave,"7800 Means Ave, New Orleans, LA",30.0472322,-89.9839794
018XX Magazine St,"1800 Magazine St, New Orleans, LA",29.932037,-90.073104
026XX Canal St,"2600 Canal St, New Orleans, LA",29.9644501,-90.0862251
052XX Magazine St,"5200 Magazine St, New Orleans, LA",29.9201509,-90.1111462
085XX Chase St,"8500 Chase St, New Orleans, LA",30.0419769,-89.9977906
031XX Lafitte St,"3100 Lafitte St, New Orleans, LA",29.9701606,-90.0858663
145XX Duane Rd,"14500 Duane Rd, New Orleans, LA",30.068482,-89.943625
009XX N Rampart St,"900 N Rampart St, New Orleans, LA",29.9620586,-90.0666759
020XX Hendee St,"2000 Hendee St, New Orleans, LA",29.9327136,-90.0394532
053XX Magazine St,"5300 Magazine St, New Orleans, LA",29.920464,-90.112856
002XX Poydras,"200 Poydras, New Orleans, LA",29.9481058,-90.0651027
089XX Palm St,"8900 Palm St, New Orleans, LA",29.969951,-90.118176
061XX Morrison Rd,"6100 Morrison Rd, New Orleans, LA",30.0266243,-90.0219385
XX French Market Pl,"XX French Market Pl, New Orleans, LA",29.9604128,-90.0588956
042XX N Rampart St,"4200 N Rampart St, New Orleans, LA",29.963768,-90.033338
007XX Whitney Ave,"700 Whitney Ave, New Orleans, LA",29.948128,-90.040454
005XX Poydras St,"500 Poydras St, New Orleans, LA",29.9485483,-90.0691025
036XX Baronne St,"3600 Baronne St, New Orleans, LA",29.9293767,-90.0945191
021XX Marigny St,"2100 Marigny St, New Orleans, LA",29.978879,-90.056423
092XX Morrison Rd,"9200 Morrison Rd, New Orleans, LA",30.0388303,-89.9873867
005XX Decatur St,"500 Decatur St, New Orleans, LA",29.955561,-90.0633657
042XX S Claiborne Ave,"4200 S Claiborne Ave, New Orleans, LA",29.9400747,-90.1013504
027XX Clover St,"2700 Clover St, New Orleans, LA",29.9968201,-90.0473726
010XX Broadway,"1000 Broadway, New Orleans, LA",29.9407332,-90.1243087
037XX Downman Rd,"3700 Downman Rd, New Orleans, LA",30.007244,-90.020597
035XX 2nd St,"3500 2nd St, New Orleans, LA",,
017XX Baronne St,"1700 Baronne St, New Orleans, LA",29.938747,-90.0787446
029XX Eagle St,"2900 Eagle St, New Orleans, LA",29.964909,-90.122002
023XX N Robertson St,"2300 N Robertson St, New Orleans, LA",29.972673,-90.054561
042XX S Rocheblave St,"4200 S Rocheblave St, New Orleans, LA",29.947536,-90.102
034XX N Derbigny St,"3400 N Derbigny St, New Orleans, LA",29.972797,-90.038558
026XX Louisiana Ave,"2600 Louisiana Ave, New Orleans, LA",29.9372748,-90.0961113
039XX Tulane Ave,"3900 Tulane Ave, New Orleans, LA",29.967584,-90.103657
142XX Saigon Dr,"14200 Saigon Dr, New Orleans, LA",30.040406,-89.914934
085XX Chef Menteur Hwy,"8500 Chef Menteur Hwy, New Orleans, LA",30.014197,-89.987397
006XX Esplanade Ave,"600 Esplanade Ave, New Orleans, LA",29.9625995,-90.0593012
020XX Gentilly Blvd,"2000 Gentilly Blvd, New Orleans, LA",29.9893338,-90.0723563
031XX Music St,"3100 Music St, New Orleans, LA",29.990279,-90.052819
074XX Read Blvd,"7400 Read Blvd, New Orleans, LA",30.043302,-89.980487
014XX Bienville St,"1400 Bienville St, New Orleans, LA",29.958572,-90.073106
028XX Tulane Ave,"2800 Tulane Ave, New Orleans, LA",29.9625038,-90.092573
009XX Hendee St,"900 Hendee St, New Orleans, LA",29.945927,-90.038654
038XX Bruxelles St,"3800 Bruxelles St, New Orleans, LA",29.996254,-90.072304
006XX Julia St,"600 Julia St, New Orleans, LA",29.9455666,-90.0706118
040XX Prytania St,"4000 Prytania St, New Orleans, LA",29.9251463,-90.0974014
019XX Saint Ann St,"1900 Saint Ann St, New Orleans, LA",29.9660026,-90.0746886
017XX Toledano St,"1700 Toledano St, New Orleans, LA",29.929777,-90.090903
004XX Loyola Ave,"400 Loyola Ave, New Orleans, LA",29.952078,-90.075457
042XX Old Gentilly Rd,"4200 Old Gentilly Rd, New Orleans, LA",30.0024209,-90.0389002
023XX Saint Philip St,"2300 Saint Philip St, New Orleans, LA",29.9700049,-90.0767612
003XX Toledano St,"300 Toledano St, New Orleans, LA",29.9214216,-90.0867685
020XX Arts St,"2000 Arts St, New Orleans, LA",29.978199,-90.050703
029XX S Claiborne Ave,"2900 S Claiborne Ave, New Orleans, LA",29.9404543,-90.0955265
022XX Napoleon Ave,"2200 Napoleon Ave, New Orleans, LA",29.9325167,-90.1029843
088XX Pritchard Pl,"8800 Pritchard Pl, New Orleans, LA",29.964359,-90.12265
009XX Touro St,"900 Touro St, New Orleans, LA",29.966541,-90.059227
036XX Somerset Dr,"3600 Somerset Dr, New Orleans, LA",29.9161174,-90.0021324
016XX Maura Pl,"1600 Maura Pl, New Orleans, LA",29.9367564,-90.0121096
047XX Franklin Ave,"4700 Franklin Ave, New Orleans, LA",30.007085,-90.050724
030XX Kabel Dr,"3000 Kabel Dr, New Orleans, LA",29.9255864,-90.0077923
059XX Downman Rd,"5900 Downman Rd, New Orleans, LA",30.0094868,-90.0207253
033XX Saint Charles Ave,"3300 Saint Charles Ave, New Orleans, LA",29.9283996,-90.0902786
018XX Saint Charles Ave,"1800 Saint Charles Ave, New Orleans, LA",29.936044,-90.07754
024XX Farragut St,"2400 Farragut St, New Orleans, LA",29.9317896,-90.0344412
013XX Pauline St,"1300 Pauline St, New Orleans, LA",29.968144,-90.036699
034XX Thalia St,"3400 Thalia St, New Orleans, LA",29.949774,-90.092839
012XX Belleville St,"1200 Belleville St, New Orleans, LA",29.9432643,-90.0483263
001XX Iberville St,"100 Iberville St, New Orleans, LA",29.9513251,-90.0646641
009XX N Dorgenois St,"900 N Dorgenois St, New Orleans, LA",29.971242,-90.080022
020XX Wagner St,"2000 Wagner St, New Orleans, LA",29.930434,-90.040619
001XX S Gayoso St,"100 S Gayoso St, New Orleans, LA",29.967477,-90.090546
017XX Mcshane Pl,"1700 Mcshane Pl, New Orleans, LA",,
018XX Annunciation St,"1800 Annunciation St, New Orleans, LA",29.9298901,-90.0707015
008XX Conti St,"800 Conti St, New Orleans, LA",29.956268,-90.067891
013XX Saint Bernard Ave,"1300 Saint Bernard Ave, New Orleans, LA",29.9692625,-90.0638106
016XX Newton St,"1600 Newton St, New Orleans, LA",29.94522,-90.040578
009XX N Carrollton Ave,"900 N Carrollton Ave, New Orleans, LA",29.9805216,-90.0935751
036XX Blair St,"3600 Blair St, New Orleans, LA",29.9162922,-89.9805112
035XX Danneel St,"3500 Danneel St, New Orleans, LA",29.9313875,-90.0945006
001XX University Pl,"100 University Pl, New Orleans, LA",,
044XX Dauphine St,"4400 Dauphine St, New Orleans, LA",29.9616868,-90.0333081
033XX Erato St,"3300 Erato St, New Orleans, LA",29.949403,-90.090426
014XX N Galvez St,"1400 N Galvez St, New Orleans, LA",29.972553,-90.07281
018XX N Rampart St,"1800 N Rampart St, New Orleans, LA",29.9671432,-90.061317
003XX S Dorgenois St,"300 S Dorgenois St, New Orleans, LA",29.962701,-90.087484
022XX N Galvez St,"2200 N Galvez St, New Orleans, LA",29.978688,-90.056171
024XX N Rampart St,"2400 N Rampart St, New Orleans, LA",29.967628,-90.054162
018XX Bienville St,"1800 Bienville St, New Orleans, LA",29.961411,-90.077426
044XX Crowder Blvd,"4400 Crowder Blvd, New Orleans, LA",30.014419,-89.988323
004XX S Jefferson Davis Pkwy,"400 S Jefferson Davis Pkwy, New Orleans, LA",,
002XX Loyola Ave,"200 Loyola Ave, New Orleans, LA",29.953821,-90.074937
044XX Constance St,"4400 Constance St, New Orleans, LA",29.919684,-90.101652
004XX S Rendon St,"400 S Rendon St, New Orleans, LA",29.966476,-90.095284
046XX Conti St,"4600 Conti St, New Orleans, LA",29.980659,-90.103871
027XX Paris Ave,"2700 Paris Ave, New Orleans, LA",29.985535,-90.072841
007XX N Rampart St,"700 N Rampart St, New Orleans, LA",29.9604474,-90.06822
060XX Saint Roch Ave,"6000 Saint Roch Ave, New Orleans, LA",30.0202889,-90.0565821
019XX Newton St,"1900 Newton St, New Orleans, LA",29.9451442,-90.0377115
015XX N Villere St,"1500 N Villere St, New Orleans, LA",29.9699364,-90.0652233
075XX Read Blvd,"7500 Read Blvd, New Orleans, LA",30.0443971,-89.9813463
025XX Elysian Fields Ave,"2500 Elysian Fields Ave, New Orleans, LA",29.98283,-90.0582801
059XX Elysian Fields Ave,"5900 Elysian Fields Ave, New Orleans, LA",30.019446,-90.061181
007XX Common St,"700 Common St, New Orleans, LA",29.952282,-90.069841
076XX Freret St,"7600 Freret St, New Orleans, LA",29.942649,-90.127381
073XX Chef Menteur Hwy,"7300 Chef Menteur Hwy, New Orleans, LA",30.01178,-90.002363
021XX 1st St,"2100 1st St, New Orleans, LA",,
020XX Piety St,"2000 Piety St, New Orleans, LA",29.9764043,-90.0389504
023XX N Rampart St,"2300 N Rampart St, New Orleans, LA",29.967554,-90.055303
021XX Tupelo St,"2100 Tupelo St, New Orleans, LA",29.969813,-90.006731
072XX Boston Dr,"7200 Boston Dr, New Orleans, LA",30.0365158,-89.9893029
012XX Decatur St,"1200 Decatur St, New Orleans, LA",29.9606269,-90.058991
051XX E Nemours St,"5100 E Nemours St, New Orleans, LA",30.04001,-89.923253
003XX Maumus Ave,"300 Maumus Ave, New Orleans, LA",29.9144014,-89.9882862
023XX Saint Claude Ave,"2300 Saint Claude Ave, New Orleans, LA",29.9680117,-90.0537653
041XX Saint Claude Ave,"4100 Saint Claude Ave, New Orleans, LA",29.9652407,-90.0343769
123XX Lake Forest Blvd,"12300 Lake Forest Blvd, New Orleans, LA",30.029972,-89.9780269
031XX Palmyra St,"3100 Palmyra St, New Orleans, LA",29.9664539,-90.0931003
020XX Magazine St,"2000 Magazine St, New Orleans, LA",29.93079,-90.07474
042XX Magazine St,"4200 Magazine St, New Orleans, LA",29.920784,-90.0992285
026XX General De Gaulle Dr,"2600 General De Gaulle Dr, New Orleans, LA",29.929881,-90.032048
027XX Jackson Ave,"2700 Jackson Ave, New Orleans, LA",29.9434023,-90.0888294
022XX Decatur St,"2200 Decatur St, New Orleans, LA",29.962567,-90.056083
060XX Saint Anthony Ave,"6000 Saint Anthony Ave, New Orleans, LA",30.019202,-90.065791
107XX Chef Menteur Hwy,"10700 Chef Menteur Hwy, New Orleans, LA",30.0189515,-89.9657381
036XX General Meyer Ave,"3600 General Meyer Ave, New Orleans, LA",29.939022,-90.018939
047XX Press Dr,"4700 Press Dr, New Orleans, LA",30.0076446,-90.0420022
060XX West End Blvd,"6000 West End Blvd, New Orleans, LA",29.9905394,-90.1157216
033XX Alvar St,"3300 Alvar St, New Orleans, LA",29.990891,-90.02954
022XX Saint Ann St,"2200 Saint Ann St, New Orleans, LA",29.967824,-90.077311
006XX S Roman St,"600 S Roman St, New Orleans, LA",29.954958,-90.082626
056XX Music St,"5600 Music St, New Orleans, LA",30.01609,-90.054846
015XX Robert E Lee Blvd,"1500 Robert E Lee Blvd, New Orleans, LA",30.0206994,-90.0772734
061XX N Claiborne Ave,"6100 N Claiborne Ave, New Orleans, LA",29.964439,-90.008842
009XX Elmira Ave,"900 Elmira Ave, New Orleans, LA",29.946403,-90.047135
027XX Martin Luther King Jr Blvd,"2700 Martin Luther King Jr Blvd, New Orleans, LA",29.9447662,-90.086185
005XX Common St,"500 Common St, New Orleans, LA",29.951193,-90.067542
008XX N Prieur St,"800 N Prieur St, New Orleans, LA",29.96667,-90.075218
075XX Trapier Ave,"7500 Trapier Ave, New Orleans, LA",30.0416455,-89.9872256
018XX Henriette Delille St,"1800 Henriette Delille St, New Orleans, LA",29.9670762,-90.0640272
018XX Baronne St,"1800 Baronne St, New Orleans, LA",29.9376128,-90.0793226
045XX Dale St,"4500 Dale St, New Orleans, LA",30.0157882,-90.0104848
013XX S Jefferson Davis Pkwy,"1300 S Jefferson Davis Pkwy, New Orleans, LA",,
026XX Magnolia St,"2600 Magnolia St, New Orleans, LA",29.9370352,-90.1051178
021XX Caton St,"2100 Caton St, New Orleans, LA",29.998851,-90.059715
026XX Filmore Ave,"2600 Filmore Ave, New Orleans, LA",30.013109,-90.050839
008XX Flood St,"800 Flood St, New Orleans, LA",29.958398,-90.017893
059XX Airway St,"5900 Airway St, New Orleans, LA",30.0135202,-90.0204261
041XX Banks St,"4100 Banks St, New Orleans, LA",29.972092,-90.103494
030XX Piety St,"3000 Piety St, New Orleans, LA",29.987812,-90.035431
009XX Howard Ave,"900 Howard Ave, New Orleans, LA",29.944726,-90.07496
026XX Thalia St,"2600 Thalia St, New Orleans, LA",29.945233,-90.084721
024XX Chippewa St,"2400 Chippewa St, New Orleans, LA",29.924513,-90.076764
020XX Constance St,"2000 Constance St, New Orleans, LA",29.930067,-90.073939
017XX Flanders St,"1700 Flanders St, New Orleans, LA",29.9374419,-90.0202971
089XX Morrison Rd,"8900 Morrison Rd, New Orleans, LA",30.0378434,-89.9904621
008XX Camp St,"800 Camp St, New Orleans, LA",29.945497,-90.070368
012XX Jackson Ave,"1200 Jackson Ave, New Orleans, LA",29.9304205,-90.077692
029XX General De Gaulle Dr,"2900 General De Gaulle Dr, New Orleans, LA",29.928498,-90.028722
082XX Chef Menteur Hwy,"8200 Chef Menteur Hwy, New Orleans, LA",30.013605,-89.990761
005XX S Pierce St,"500 S Pierce St, New Orleans, LA",29.9699965,-90.1024909
008XX Atlantic Ave,"800 Atlantic Ave, New Orleans, LA",29.9468623,-90.0445614
037XX Orleans Ave,"3700 Orleans Ave, New Orleans, LA",29.97668,-90.09193
007XX Basin St,"700 Basin St, New Orleans, LA",29.9569268,-90.0728869
037XX Louisa St,"3700 Louisa St, New Orleans, LA",29.995797,-90.034973
039XX Jennifer St,"3900 Jennifer St, New Orleans, LA",29.91335,-89.979728
006XX Basin St,"600 Basin St, New Orleans, LA",29.9598,-90.069665
042XX Franklin Ave,"4200 Franklin Ave, New Orleans, LA",30.0018466,-90.050467
053XX Wingate Dr,"5300 Wingate Dr, New Orleans, LA",30.0168903,-90.0679049
066XX Fleur De Lis Dr,"6600 Fleur De Lis Dr, New Orleans, LA",30.0122527,-90.1185591
023XX Bristol Pl,"2300 Bristol Pl, New Orleans, LA",29.9300135,-90.0013456
007XX Saint Charles Ave,"700 Saint Charles Ave, New Orleans, LA",29.947203,-90.071191
075XX Weaver Ave,"7500 Weaver Ave, New Orleans, LA",30.0438643,-89.9845609
025XX Holiday Dr,"2500 Holiday Dr, New Orleans, LA",29.9294641,-90.0133246
022XX Gentilly Blvd,"2200 Gentilly Blvd, New Orleans, LA",29.9903313,-90.0714895
057XX Bancroft Dr,"5700 Bancroft Dr, New Orleans, LA",30.0154214,-90.0830504
018XX Piety St,"1800 Piety St, New Orleans, LA",29.974327,-90.039491
030XX Saint Claude Ave,"3000 Saint Claude Ave, New Orleans, LA",29.9677989,-90.0458653
026XX General Meyer Ave,"2600 General Meyer Ave, New Orleans, LA",29.9436087,-90.0292284
019XX Martin Luther King Jr Blvd,"1900 Martin Luther King Jr Blvd, New Orleans, LA",29.941098,-90.079466
029XX Saint Bernard Ave,"2900 Saint Bernard Ave, New Orleans, LA",29.9863821,-90.0739161
001XX Saint Charles Ave,"100 Saint Charles Ave, New Orleans, LA",29.952955,-90.069157
068XX Parc Brittany,"6800 Parc Brittany, New Orleans, LA",30.026894,-90.000047
023XX Mendez St,"2300 Mendez St, New Orleans, LA",30.015687,-90.05798
017XX Pace Blvd,"1700 Pace Blvd, New Orleans, LA",29.935943,-90.0274577
073XX Newcastle St,"7300 Newcastle St, New Orleans, LA",,
069XX E Hermes St,"6900 E Hermes St, New Orleans, LA",30.023989,-90.01655
055XX Tchoupitoulas St,"5500 Tchoupitoulas St, New Orleans, LA",29.916358,-90.117442
063XX Saint Charles Ave,"6300 Saint Charles Ave, New Orleans, LA",29.932738,-90.1211214
062XX Saint Claude Ave,"6200 Saint Claude Ave, New Orleans, LA",29.959347,-90.010013
049XX Lonely Oak Dr,"4900 Lonely Oak Dr, New Orleans, LA",30.0198031,-90.0018881
063XX Woodland Hwy,"6300 Woodland Hwy, New Orleans, LA",29.909315,-89.993017
058XX Morrison Rd,"5800 Morrison Rd, New Orleans, LA",30.0254461,-90.0254016
065XX I-10 Service Rd,"6500 I-10 Service Rd, New Orleans, LA",30.0363638,-89.9789902
028XX Milan St,"2800 Milan St, New Orleans, LA",29.9384338,-90.1011584
017XX Clouet St,"1700 Clouet St, New Orleans, LA",29.9738778,-90.0424958
030XX Loyola Ave,"3000 Loyola Ave, New Orleans, LA",29.934536,-90.091865
006XX Brooks St,"600 Brooks St, New Orleans, LA",29.9973541,-90.1098645
049XX Downman Rd,"4900 Downman Rd, New Orleans, LA",30.0094868,-90.0207253
062XX Colbert St,"6200 Colbert St, New Orleans, LA",30.0032977,-90.1118149
017XX Vespasian Blvd,"1700 Vespasian Blvd, New Orleans, LA",29.932263,-90.040457
020XX Perdido St,"2000 Perdido St, New Orleans, LA",29.955849,-90.084518
139XX Tudo Dr,"13900 Tudo Dr, New Orleans, LA",30.040327,-89.920845
009XX N Broad St,"900 N Broad St, New Orleans, LA",29.97209,-90.0812424
021XX Martin Luther King Jr Blvd,"2100 Martin Luther King Jr Blvd, New Orleans, LA",29.941921,-90.080966
022XX 1st St,"2200 1st St, New Orleans, LA",,
090XX Hayne Blvd,"9000 Hayne Blvd, New Orleans, LA",30.0446242,-89.9932974
069XX Argonne Blvd,"6900 Argonne Blvd, New Orleans, LA",30.0155439,-90.1017214
059XX Memphis St,"5900 Memphis St, New Orleans, LA",29.997389,-90.1068671
016XX Rev John Raphael Jr Way,"1600 Rev John Raphael Jr Way, New Orleans, LA",,
013XX Flanders St,"1300 Flanders St, New Orleans, LA",29.9414144,-90.019946
032XX Magazine St,"3200 Magazine St, New Orleans, LA",29.9239,-90.086449
037XX Earhart Blvd,"3700 Earhart Blvd, New Orleans, LA",29.9535368,-90.0939623
009XX N Villere St,"900 N Villere St, New Orleans, LA",29.9645012,-90.0697749
049XX Good Dr,"4900 Good Dr, New Orleans, LA",30.0255643,-89.9623823
021XX Cobblestone Ln,"2100 Cobblestone Ln, New Orleans, LA",29.9307699,-90.0184211
032XX Plymouth Pl,"3200 Plymouth Pl, New Orleans, LA",29.9214972,-90.0009564
014XX Saint Charles Ave,"1400 Saint Charles Ave, New Orleans, LA",29.9394979,-90.074697
025XX Toledano St,"2500 Toledano St, New Orleans, LA",29.937056,-90.094428
001XX N Derbigny St,"100 N Derbigny St, New Orleans, LA",29.959837,-90.07851
030XX Tulane Ave,"3000 Tulane Ave, New Orleans, LA",29.963422,-90.094537
050XX W Forest Park Ct,"5000 W Forest Park Ct, New Orleans, LA",,
012XX S Salcedo St,"1200 S Salcedo St, New Orleans, LA",29.95651,-90.101062
020XX Saint Claude Ave,"2000 Saint Claude Ave, New Orleans, LA",29.9681653,-90.0591607
013XX Spain St,"1300 Spain St, New Orleans, LA",29.970912,-90.053522
062XX Waldo Dr,"6200 Waldo Dr, New Orleans, LA",30.02177,-90.068565
028XX Palmyra St,"2800 Palmyra St, New Orleans, LA",29.96481,-90.090542
044XX Franklin Ave,"4400 Franklin Ave, New Orleans, LA",30.003125,-90.050421
066XX Lamb Rd,"6600 Lamb Rd, New Orleans, LA",30.021661,-90.0147847
030XX General De Gaulle Dr,"3000 General De Gaulle Dr, New Orleans, LA",29.9280929,-90.0277623
042XX General De Gaulle Dr,"4200 General De Gaulle Dr, New Orleans, LA",29.9198204,-90.0130668
002XX Royal St,"200 Royal St, New Orleans, LA",29.954104,-90.068014
007XX Chartres St,"700 Chartres St, New Orleans, LA",29.957449,-90.063657
042XX Euphrosine St,"4200 Euphrosine St, New Orleans, LA",29.95763,-90.0997355
075XX Forum Blvd,"7500 Forum Blvd, New Orleans, LA",,
009XX Saint Philip St,"900 Saint Philip St, New Orleans, LA",29.961693,-90.064516
025XX Decatur St,"2500 Decatur St, New Orleans, LA",29.962774,-90.052645
036XX Bennett St,"3600 Bennett St, New Orleans, LA",29.9154507,-89.9773026
064XX Bridgehampton Dr,"6400 Bridgehampton Dr, New Orleans, LA",30.0282297,-90.0190911
008XX Bienville St,"800 Bienville St, New Orleans, LA",29.9555977,-90.0687472
013XX Elysian Fields Ave,"1300 Elysian Fields Ave, New Orleans, LA",29.9706453,-90.0573527
036XX Danneel St,"3600 Danneel St, New Orleans, LA",29.931171,-90.095242
038XX Louisa St,"3800 Louisa St, New Orleans, LA",29.9977751,-90.0347667
008XX Common St,"800 Common St, New Orleans, LA",29.9527122,-90.0711337
014XX Foucher St,"1400 Foucher St, New Orleans, LA",29.924944,-90.092786
012XX Pauline St,"1200 Pauline St, New Orleans, LA",29.967101,-90.037025
021XX N Broad St,"2100 N Broad St, New Orleans, LA",29.985114,-90.069923
002XX Clinton St,"200 Clinton St, New Orleans, LA",29.952582,-90.06575
015XX Ursulines Ave,"1500 Ursulines Ave, New Orleans, LA",29.96606,-90.068995
045XX Euphrosine St,"4500 Euphrosine St, New Orleans, LA",29.959205,-90.101653
029XX Wall Blvd,"2900 Wall Blvd, New Orleans, LA",29.934162,-90.02672
013XX Behrman Ave,"1300 Behrman Ave, New Orleans, LA",29.941633,-90.036955
014XX Poydras St,"1400 Poydras St, New Orleans, LA",29.9512826,-90.0780059
070XX Bullard Ave,"7000 Bullard Ave, New Orleans, LA",30.047341,-89.962367
042XX N Claiborne Ave,"4200 N Claiborne Ave, New Orleans, LA",29.9701066,-90.0319469
007XX Iberville Street,"700 Iberville Street, New Orleans, LA",29.954064,-90.068344
008XX Whitney Ave,"800 Whitney Ave, New Orleans, LA",29.947145,-90.040518
010XX Saint Charles Ave,"1000 Saint Charles Ave, New Orleans, LA",29.9429903,-90.0718252
077XX Chef Menteur Hwy,"7700 Chef Menteur Hwy, New Orleans, LA",30.0122644,-89.9969773
036XX Saint Charles Ave,"3600 Saint Charles Ave, New Orleans, LA",29.9270532,-90.0937261
016XX Touro St,"1600 Touro St, New Orleans, LA",29.973568,-90.059765
033XX Tulane Ave,"3300 Tulane Ave, New Orleans, LA",29.964651,-90.097217
024XX Monroe St,"2400 Monroe St, New Orleans, LA",29.960252,-90.125476
036XX Hamburg St,"3600 Hamburg St, New Orleans, LA",29.994024,-90.0747696
089XX Edinburgh St,"8900 Edinburgh St, New Orleans, LA",29.969245,-90.11893
013XX L B Landry Ave,"1300 L B Landry Ave, New Orleans, LA",29.9295815,-90.041751
007XX S Peters St,"700 S Peters St, New Orleans, LA",29.9457012,-90.0657342
021XX Saint Claude Ave,"2100 Saint Claude Ave, New Orleans, LA",29.9683144,-90.0579198
008XX Saint Ann St,"800 Saint Ann St, New Orleans, LA",29.959488,-90.065019
014XX S Prieur St,"1400 S Prieur St, New Orleans, LA",29.948528,-90.090768
035XX Hamilton St,"3500 Hamilton St, New Orleans, LA",29.97068,-90.120369
016XX Freret St,"1600 Freret St, New Orleans, LA",29.9436043,-90.0845456
006XX Gravier St,"600 Gravier St, New Orleans, LA",29.951075,-90.06894
016XX Canal St,"1600 Canal St, New Orleans, LA",29.9582918,-90.0773126
014XX N Tonti St,"1400 N Tonti St, New Orleans, LA",29.973885,-90.074392
030XX Elysian Fields Ave,"3000 Elysian Fields Ave, New Orleans, LA",29.9889313,-90.0587851
001XX Magazine St,"100 Magazine St, New Orleans, LA",29.951585,-90.067099
107XX Roger Dr,"10700 Roger Dr, New Orleans, LA",30.0406278,-89.9722438
011XX N Peters St,"1100 N Peters St, New Orleans, LA",29.9597479,-90.0595478
023XX Washington Ave,"2300 Washington Ave, New Orleans, LA",29.936759,-90.090416
006XX N Murat St,"600 N Murat St, New Orleans, LA",29.9813603,-90.101349
016XX N Claiborne Ave,"1600 N Claiborne Ave, New Orleans, LA",29.9724137,-90.0652009
030XX General Pershing St,"3000 General Pershing St, New Orleans, LA",29.940612,-90.102321
031XX Saint Claude Ave,"3100 Saint Claude Ave, New Orleans, LA",29.967416,-90.0440778
077XX Hayne Blvd,"7700 Hayne Blvd, New Orleans, LA",30.038878,-90.0062842
005XX Elmira Ave,"500 Elmira Ave, New Orleans, LA",29.9507243,-90.0467764
018XX Tita St,"1800 Tita St, New Orleans, LA",29.936278,-90.023755
036XX Clematis St,"3600 Clematis St, New Orleans, LA",29.9951633,-90.0523807
029XX Audubon St,"2900 Audubon St, New Orleans, LA",29.955691,-90.111573
001XX Lavergne St,"100 Lavergne St, New Orleans, LA",29.9546262,-90.0525583
131XX Chef Menteur Hwy,"13100 Chef Menteur Hwy, New Orleans, LA",30.0293229,-89.9300138
018XX N Claiborne Ave,"1800 N Claiborne Ave, New Orleans, LA",29.972882,-90.061754
049XX Macarthur Blvd,"4900 Macarthur Blvd, New Orleans, LA",29.923803,-90.003489
083XX Palmetto St,"8300 Palmetto St, New Orleans, LA",29.9672626,-90.1127405
025XX Lavender St,"2500 Lavender St, New Orleans, LA",29.9973357,-90.0521568
043XX Calliope St,"4300 Calliope St, New Orleans, LA",29.957963,-90.101229
024XX Lauradale Dr,"2400 Lauradale Dr, New Orleans, LA",29.9311148,-90.0329608
078XX Bass St,"7800 Bass St, New Orleans, LA",30.0701263,-89.9449011
037XX Canal St,"3700 Canal St, New Orleans, LA",29.9718749,-90.0972511
043XX Washington Ave,"4300 Washington Ave, New Orleans, LA",29.9535875,-90.1024466
015XX N Rampart St,"1500 N Rampart St, New Orleans, LA",29.9619052,-90.0247593
004XX Barracks St,"400 Barracks St, New Orleans, LA",29.961128,-90.058269
025XX Madrid St,"2500 Madrid St, New Orleans, LA",30.0211003,-90.0538409
026XX Acacia St,"2600 Acacia St, New Orleans, LA",29.996041,-90.049525
046XX Dryades St,"4600 Dryades St, New Orleans, LA",29.9292045,-90.104896
011XX Poland Ave,"1100 Poland Ave, New Orleans, LA",29.965041,-90.031601
031XX S Carrollton Ave,"3100 S Carrollton Ave, New Orleans, LA",29.9615161,-90.1150204
006XX Conti St,"600 Conti St, New Orleans, LA",29.955075,-90.066106
028XX Orleans Ave,"2800 Orleans Ave, New Orleans, LA",29.9716207,-90.0844395
047XX Canal St,"4700 Canal St, New Orleans, LA",29.9785627,-90.1072209
024XX Lavender St,"2400 Lavender St, New Orleans, LA",29.9974,-90.053385
020XX 7th St,"2000 7th St, New Orleans, LA",29.93311,-90.090737
022XX Felicity St,"2200 Felicity St, New Orleans, LA",29.9415535,-90.0837172
009XX Gallier St,"900 Gallier St, New Orleans, LA",29.964517,-90.040321
048XX Magazine St,"4800 Magazine St, New Orleans, LA",29.920304,-90.106228
017XX Saint Bernard Ave,"1700 Saint Bernard Ave, New Orleans, LA",29.974172,-90.066654
041XX Willow St,"4100 Willow St, New Orleans, LA",29.9392554,-90.0997811
007XX S Dupree St,"700 S Dupree St, New Orleans, LA",,
033XX General De Gaulle Dr,"3300 General De Gaulle Dr, New Orleans, LA",29.926776,-90.024648
021XX Foucher St,"2100 Foucher St, New Orleans, LA",29.932312,-90.095601
013XX Sumner St,"1300 Sumner St, New Orleans, LA",29.9416802,-90.0379126
056XX Canal Blvd,"5600 Canal Blvd, New Orleans, LA",29.992821,-90.1097
015XX Southlawn Blvd,"1500 Southlawn Blvd, New Orleans, LA",29.9395474,-90.0252198
024XX Allen St,"2400 Allen St, New Orleans, LA",29.981424,-90.065019
020XX Allen St,"2000 Allen St, New Orleans, LA",29.97729,-90.064693
064XX Canal Blvd,"6400 Canal Blvd, New Orleans, LA",30.007068,-90.1082364
060XX Downman Rd,"6000 Downman Rd, New Orleans, LA",30.0094868,-90.0207253
025XX Amelia St,"2500 Amelia St, New Orleans, LA",29.9357631,-90.09721
060XX Canal Blvd,"6000 Canal Blvd, New Orleans, LA",29.9993978,-90.1091305
090XX Marks St,"9000 Marks St, New Orleans, LA",29.974126,-90.115226
019XX Jackson Ave,"1900 Jackson Ave, New Orleans, LA",29.937049,-90.083251
085XX Gervais St,"8500 Gervais St, New Orleans, LA",30.0400395,-89.9969657
007XX Esplanade Ave,"700 Esplanade Ave, New Orleans, LA",29.963338,-90.060133
003XX N Claiborne Ave,"300 N Claiborne Ave, New Orleans, LA",29.960713,-90.075952
013XX Royal St,"1300 Royal St, New Orleans, LA",29.962805,-90.060334
008XX Royal St,"800 Royal St, New Orleans, LA",29.9588844,-90.0638526
024XX S Carrollton Ave,"2400 S Carrollton Ave, New Orleans, LA",29.956195,-90.120431
002XX W Harrison Ave,"200 W Harrison Ave, New Orleans, LA",30.0055886,-90.1172146
030XX Constance St,"3000 Constance St, New Orleans, LA",29.9239524,-90.0841921
088XX Olive St,"8800 Olive St, New Orleans, LA",29.9678625,-90.1188812
035XX Garden Oaks Dr,"3500 Garden Oaks Dr, New Orleans, LA",29.9192683,-90.0220826
026XX Gladiolus St,"2600 Gladiolus St, New Orleans, LA",29.999214,-90.049768
084XX Cohn St,"8400 Cohn St, New Orleans, LA",29.954405,-90.127226
010XX Music St,"1000 Music St, New Orleans, LA",29.968028,-90.05103
061XX West End Blvd,"6100 West End Blvd, New Orleans, LA",29.9905394,-90.1157216
028XX Eton St,"2800 Eton St, New Orleans, LA",29.92499,-89.997498
005XX Warrington Dr,"500 Warrington Dr, New Orleans, LA",30.001774,-90.067849
065XX Berkley Dr,"6500 Berkley Dr, New Orleans, LA",29.9176523,-89.9844544
039XX Tchoupitoulas St,"3900 Tchoupitoulas St, New Orleans, LA",29.9172271,-90.0946517
017XX General De Gaulle Dr,"1700 General De Gaulle Dr, New Orleans, LA",29.930784,-90.0411741
078XX Green St,"7800 Green St, New Orleans, LA",29.9488317,-90.1236531
014XX Arts St,"1400 Arts St, New Orleans, LA",29.9720995,-90.050218
019XX Bodenger Blvd,"1900 Bodenger Blvd, New Orleans, LA",29.937084,-90.0461682
136XX Chef Menteur Hwy,"13600 Chef Menteur Hwy, New Orleans, LA",30.034999,-89.915365
021XX Port St,"2100 Port St, New Orleans, LA",29.979155,-90.046105
073XX Primrose Dr,"7300 Primrose Dr, New Orleans, LA",30.0337539,-90.0020566
021XX N Villery,"2100 N Villery, New Orleans, LA",,
085XX N I-10 Service Rd,"8500 N I-10 Service Rd, New Orleans, LA",,
048XX Raymond Joseph Dr,"4800 Raymond Joseph Dr, New Orleans, LA",30.020889,-89.997274
071XX Downman Rd,"7100 Downman Rd, New Orleans, LA",30.0234714,-90.0239119
041XX Louisa St,"4100 Louisa St, New Orleans, LA",30.002986,-90.03566
011XX Gravier St,"1100 Gravier St, New Orleans, LA",29.953167,-90.074438
018XX Sumpter St,"1800 Sumpter St, New Orleans, LA",30.004475,-90.067774
083XX S Claiborne Ave,"8300 S Claiborne Ave, New Orleans, LA",29.957313,-90.122614
001XX Lelong Ave,"100 Lelong Ave, New Orleans, LA",,
020XX Saint Charles Ave,"2000 Saint Charles Ave, New Orleans, LA",29.935114,-90.078734
021XX Desire St,"2100 Desire St, New Orleans, LA",29.977203,-90.037492
021XX S Liberty St,"2100 S Liberty St, New Orleans, LA",29.9404438,-90.0847012
034XX Carondelet St,"3400 Carondelet St, New Orleans, LA",29.929137,-90.092072
027XX S Claiborne Ave,"2700 S Claiborne Ave, New Orleans, LA",29.942698,-90.093685
044XX Congress Dr,"4400 Congress Dr, New Orleans, LA",30.007378,-90.031852
034XX Behrman Hwy,"3400 Behrman Hwy, New Orleans, LA",29.91684,-90.022003
012XX Forstall St,"1200 Forstall St, New Orleans, LA",29.9634646,-90.0211731
005XX Gravier St,"500 Gravier St, New Orleans, LA",29.95057,-90.067739
016XX Mazant St,"1600 Mazant St, New Orleans, LA",29.970635,-90.032975
087XX Hayne Blvd,"8700 Hayne Blvd, New Orleans, LA",30.043473,-89.996424
008XX Bourbon St,"800 Bourbon St, New Orleans, LA",29.9595164,-90.0646894
022XX Toledano St,"2200 Toledano St, New Orleans, LA",29.934233,-90.093029
005XX N Galvez St,"500 N Galvez St, New Orleans, LA",29.965222,-90.079161
010XX St Charles Ave,"1000 St Charles Ave, New Orleans, LA",29.9429903,-90.0718252
057XX Pembrook Street,"5700 Pembrook Street, New Orleans, LA",,
037XX General Meyer Ave,"3700 General Meyer Ave, New Orleans, LA",29.9387274,-90.0177072
018XX Murl St,"1800 Murl St, New Orleans, LA",29.936318,-90.024494
024XX Robert St,"2400 Robert St, New Orleans, LA",29.936061,-90.108418
028XX General Taylor St,"2800 General Taylor St, New Orleans, LA",29.938543,-90.0995
042XX S Carrollton Ave,"4200 S Carrollton Ave, New Orleans, LA",29.969737,-90.105486
032XX Royal St,"3200 Royal St, New Orleans, LA",29.962975,-90.043581
082XX Palm St,"8200 Palm St, New Orleans, LA",29.9654305,-90.1129572
004XX S Jeff Davis Pkwy,"400 S Jeff Davis Pkwy, New Orleans, LA",,
008XX St Ferdinand St,"800 St Ferdinand St, New Orleans, LA",29.96551,-90.04928
029XX Conti St,"2900 Conti St, New Orleans, LA",29.969643,-90.08756
024XX Saint Claude Ave,"2400 Saint Claude Ave, New Orleans, LA",29.9687171,-90.0520233
005XX Flood St,"500 Flood St, New Orleans, LA",29.955628,-90.018789
079XX Buffalo Rd,"7900 Buffalo Rd, New Orleans, LA",30.070974,-89.946675
088XX Apple St,"8800 Apple St, New Orleans, LA",29.962196,-90.1249227
010XX N Claiborne Ave,"1000 N Claiborne Ave, New Orleans, LA",29.9614145,-90.0754489
004XX N Prieur St,"400 N Prieur St, New Orleans, LA",29.963491,-90.078095
009XX N Peters St,"900 N Peters St, New Orleans, LA",29.958597,-90.060941
002XX N Broad St,"200 N Broad St, New Orleans, LA",29.966502,-90.08631
008XX Decatur St,"800 Decatur St, New Orleans, LA",29.957561,-90.0618544
044XX Majestic Oaks Dr,"4400 Majestic Oaks Dr, New Orleans, LA",30.0124552,-90.0157143
017XX Mandeville St,"1700 Mandeville St, New Orleans, LA",29.974889,-90.054971
014XX Annunciation St,"1400 Annunciation St, New Orleans, LA",29.9359803,-90.0691067
027XX Baronne St,"2700 Baronne St, New Orleans, LA",29.932997,-90.086452
020XX Cypress Acres Dr,"2000 Cypress Acres Dr, New Orleans, LA",29.9298406,-90.0219776
030XX N Galvez St,"3000 N Galvez St, New Orleans, LA",29.978204,-90.042777
067XX Foch Rd,"6700 Foch Rd, New Orleans, LA",30.0220398,-90.0191722
067XX Canal Blvd,"6700 Canal Blvd, New Orleans, LA",30.012374,-90.107381
025XX Martin Luther King Jr Blv,"2500 Martin Luther King Jr Blv, New Orleans, LA",,
007XX Saint Maurice Ave,"700 Saint Maurice Ave, New Orleans, LA",29.9557517,-90.0121505
025XX N Prieur St,"2500 N Prieur St, New Orleans, LA",29.9769034,-90.0503943
030XX Cherry St,"3000 Cherry St, New Orleans, LA",29.968462,-90.125751
007XX Harrison Ave,"700 Harrison Ave, New Orleans, LA",30.004479,-90.107709
028XX Saint Claude Ave,"2800 Saint Claude Ave, New Orleans, LA",29.9683797,-90.0482111
008XX S Carrollton Ave,"800 S Carrollton Ave, New Orleans, LA",29.9447396,-90.1328919
003XX Camp St,"300 Camp St, New Orleans, LA",29.9509367,-90.0688256
014XX Lamarque St,"1400 Lamarque St, New Orleans, LA",29.9418745,-90.0420449
087XX Belfast St,"8700 Belfast St, New Orleans, LA",29.9622569,-90.123353
049XX Gabriel Dr,"4900 Gabriel Dr, New Orleans, LA",30.0235204,-89.981179
043XX Majestic Oaks Dr,"4300 Majestic Oaks Dr, New Orleans, LA",30.010726,-90.015406
029XX Paris Ave,"2900 Paris Ave, New Orleans, LA",29.9870295,-90.0730691
012XX Poland Ave,"1200 Poland Ave, New Orleans, LA",29.9658274,-90.0315494
024XX N Claiborne Ave,"2400 N Claiborne Ave, New Orleans, LA",29.973824,-90.052254
031XX Washington Ave,"3100 Washington Ave, New Orleans, LA",29.943499,-90.095427
034XX Orleans Ave,"3400 Orleans Ave, New Orleans, LA",29.976119,-90.091079
014XX General Taylor St,"1400 General Taylor St, New Orleans, LA",29.925572,-90.096155
012XX Napoleon Ave,"1200 Napoleon Ave, New Orleans, LA",29.923762,-90.101994
014XX Jackson Ave,"1400 Jackson Ave, New Orleans, LA",29.931893,-90.078918
036XX Magazine St,"3600 Magazine St, New Orleans, LA",29.921974,-90.091743
029XX 3rd St,"2900 3rd St, New Orleans, LA",29.9107129,-89.9721216
018XX Almonaster Ave,"1800 Almonaster Ave, New Orleans, LA",29.976946,-90.048062
019XX Saint Bernard Ave,"1900 Saint Bernard Ave, New Orleans, LA",29.975681,-90.06753
045XX S Claiborne Ave,"4500 S Claiborne Ave, New Orleans, LA",29.939777,-90.1049528
060XX Royal St,"6000 Royal St, New Orleans, LA",29.956212,-90.014014
090XX Olive St,"9000 Olive St, New Orleans, LA",29.9691116,-90.1205943
021XX Josephine St,"2100 Josephine St, New Orleans, LA",29.9389294,-90.0833705
016XX S Saratoga St,"1600 S Saratoga St, New Orleans, LA",29.9411339,-90.0811831
055XX Piety Dr,"5500 Piety Dr, New Orleans, LA",30.016404,-90.038325
067XX Downman Rd,"6700 Downman Rd, New Orleans, LA",30.0206605,-90.0225715
078XX Sand St,"7800 Sand St, New Orleans, LA",30.0710472,-89.9437851
010XX Broadway St,"1000 Broadway St, New Orleans, LA",29.9407332,-90.1243087
055XX Dauphine St,"5500 Dauphine St, New Orleans, LA",29.9581061,-90.0176863
024XX Bristol Pl,"2400 Bristol Pl, New Orleans, LA",29.9292992,-90.001416
045XX S Carrollton Ave,"4500 S Carrollton Ave, New Orleans, LA",29.9558234,-90.1204068
023XX Almonaster Ave,"2300 Almonaster Ave, New Orleans, LA",29.9815738,-90.0466577
042XX Tulane Ave,"4200 Tulane Ave, New Orleans, LA",29.9695686,-90.1086386
016XX France St,"1600 France St, New Orleans, LA",29.970431,-90.032092
030XX Orleans Ave,"3000 Orleans Ave, New Orleans, LA",29.9727051,-90.0861508
084XX Apple St,"8400 Apple St, New Orleans, LA",29.9596468,-90.1217285
108XX Kinneil Rd,"10800 Kinneil Rd, New Orleans, LA",30.0437122,-89.9734338
033XX 3rd St,"3300 3rd St, New Orleans, LA",29.9107129,-89.9721216
135XX N Lemans St,"13500 N Lemans St, New Orleans, LA",30.040572,-89.9277989
047XX Nottingham Dr,"4700 Nottingham Dr, New Orleans, LA",30.023724,-89.95696
014XX Elysian Fields Ave,"1400 Elysian Fields Ave, New Orleans, LA",29.971701,-90.057297
006XX Loyola Ave,"600 Loyola Ave, New Orleans, LA",29.9493262,-90.075798
025XX Eton St,"2500 Eton St, New Orleans, LA",29.9287239,-89.9965165
032XX S Carrollton Ave,"3200 S Carrollton Ave, New Orleans, LA",29.96186,-90.11436
011XX Camp St,"1100 Camp St, New Orleans, LA",29.940177,-90.071919
028XX Napoleon Ave,"2800 Napoleon Ave, New Orleans, LA",29.938196,-90.103457
037XX Tulane Ave,"3700 Tulane Ave, New Orleans, LA",29.966467,-90.1019795
076XX Hayne Blvd,"7600 Hayne Blvd, New Orleans, LA",30.039386,-90.006956
113XX Midpoint Dr,"11300 Midpoint Dr, New Orleans, LA",30.0314238,-89.949827
075XX Crowder Blvd,"7500 Crowder Blvd, New Orleans, LA",30.037814,-89.997674
048XX General Meyer Ave,"4800 General Meyer Ave, New Orleans, LA",29.932772,-90.00478
045XX La Salle St,"4500 La Salle St, New Orleans, LA",29.9341026,-90.1043074
024XX Freret St,"2400 Freret St, New Orleans, LA",29.9402606,-90.0884342
027XX Hamilton St,"2700 Hamilton St, New Orleans, LA",29.965048,-90.126385
027XX Ursulines Ave,"2700 Ursulines Ave, New Orleans, LA",29.973905,-90.080393
041XX S Claiborne Ave,"4100 S Claiborne Ave, New Orleans, LA",29.940259,-90.099985
006XX Pere Antoine Aly,"600 Pere Antoine Aly, New Orleans, LA",29.957874,-90.063515
032XX Banks St,"3200 Banks St, New Orleans, LA",29.9659408,-90.0945977
079XX Parry St,"7900 Parry St, New Orleans, LA",30.058144,-89.964726
002XX Saint Bernard Ave,"200 Saint Bernard Ave, New Orleans, LA",30.023521,-90.0814016
010XX N Galvez St,"1000 N Galvez St, New Orleans, LA",29.969557,-90.075502
006XX Girod St,"600 Girod St, New Orleans, LA",29.946982,-90.070168
016XX Louisiana Ave,"1600 Louisiana Ave, New Orleans, LA",29.928377,-90.09166
097XX Chef Menteur Hwy,"9700 Chef Menteur Hwy, New Orleans, LA",30.0167282,-89.9727017
097XX Hammond St,"9700 Hammond St, New Orleans, LA",30.0225,-89.973363
062XX Pontchartrain Blvd,"6200 Pontchartrain Blvd, New Orleans, LA",30.0041581,-90.1161487
